header: 
  seq: 1700
  stamp: 
    secs: 1682526353
    nsecs: 541467625
  frame_id: "world_vive"
twist: 
  linear: 
    x: 0.0017001315718516707
    y: -0.0025171046145260334
    z: 0.00011998633272014558
  angular: 
    x: -0.004267903044819832
    y: -0.0011586615582928061
    z: 0.00032162509160116315
---
header: 
  seq: 1701
  stamp: 
    secs: 1682526353
    nsecs: 574909512
  frame_id: "world_vive"
twist: 
  linear: 
    x: 0.0009353937930427492
    y: -0.0014554101508110762
    z: -0.0002810454461723566
  angular: 
    x: 0.0015772918704897165
    y: 0.0024151038378477097
    z: 0.0014228424988687038
---
header: 
  seq: 1702
  stamp: 
    secs: 1682526353
    nsecs: 608297556
  frame_id: "world_vive"
twist: 
  linear: 
    x: 0.0014394327299669385
    y: -0.0012362529523670673
    z: -0.00033372637699358165
  angular: 
    x: -0.0011722510680556297
    y: -0.0009542698971927166
    z: -0.0004586839640978724
---
header: 
  seq: 1703
  stamp: 
    secs: 1682526353
    nsecs: 641582218
  frame_id: "world_vive"
twist: 
  linear: 
    x: 0.0016523153753951192
    y: -0.0004017662722617388
    z: -0.0010950175346806645
  angular: 
    x: 0.002574638929218054
    y: 0.001850560656748712
    z: 0.002775070257484913
---
header: 
  seq: 1704
  stamp: 
    secs: 1682526353
    nsecs: 674923091
  frame_id: "world_vive"
twist: 
  linear: 
    x: 0.0013840001774951816
    y: -0.000759625225327909
    z: -0.0007041789940558374
  angular: 
    x: -0.0009397479589097202
    y: -0.0026790767442435026
    z: 0.0008017084328457713
---
header: 
  seq: 1705
  stamp: 
    secs: 1682526353
    nsecs: 708125091
  frame_id: "world_vive"
twist: 
  linear: 
    x: 0.0016027441015467048
    y: -0.0005604138132184744
    z: -0.0015534106642007828
  angular: 
    x: 0.000314926786813885
    y: 0.0022475169971585274
    z: 0.00032514857593923807
---
header: 
  seq: 1706
  stamp: 
    secs: 1682526353
    nsecs: 741530837
  frame_id: "world_vive"
twist: 
  linear: 
    x: 0.001574662048369646
    y: -0.0006806118763051927
    z: -0.0010329234646633267
  angular: 
    x: -0.0013555155601352453
    y: -0.001747243688441813
    z: -0.0010067404946312308
---
header: 
  seq: 1707
  stamp: 
    secs: 1682526353
    nsecs: 774878876
  frame_id: "world_vive"
twist: 
  linear: 
    x: 0.001307406579144299
    y: -0.00014165569155011326
    z: -0.0008889193995855749
  angular: 
    x: 0.00015360717952717096
    y: -0.002521083690226078
    z: 0.00027513675740920007
---
header: 
  seq: 1708
  stamp: 
    secs: 1682526353
    nsecs: 808208544
  frame_id: "world_vive"
twist: 
  linear: 
    x: 0.0006170672713778913
    y: 4.136340521654347e-06
    z: -0.0006217891350388527
  angular: 
    x: 0.0030220167245715857
    y: -0.0010828665690496564
    z: -0.00013482932990882546
---
header: 
  seq: 1709
  stamp: 
    secs: 1682526353
    nsecs: 841565656
  frame_id: "world_vive"
twist: 
  linear: 
    x: 0.0001138303559855558
    y: 0.0006527230725623667
    z: -0.0005767469410784543
  angular: 
    x: -0.0004339774895925075
    y: -6.511456012958661e-05
    z: -0.00032379108597524464
---
header: 
  seq: 1710
  stamp: 
    secs: 1682526353
    nsecs: 874906235
  frame_id: "world_vive"
twist: 
  linear: 
    x: 0.00045043209684081376
    y: 2.9368989999056794e-05
    z: -0.0005745536764152348
  angular: 
    x: -0.0012533236294984818
    y: -0.00042074709199368954
    z: -0.0017657452262938023
---
header: 
  seq: 1711
  stamp: 
    secs: 1682526353
    nsecs: 908289799
  frame_id: "world_vive"
twist: 
  linear: 
    x: 0.0007199564133770764
    y: 0.00044246463221497834
    z: -0.0001742792665027082
  angular: 
    x: -0.0003575277514755726
    y: -0.0005817135097458959
    z: 0.0007612560875713825
---
header: 
  seq: 1712
  stamp: 
    secs: 1682526353
    nsecs: 941656063
  frame_id: "world_vive"
twist: 
  linear: 
    x: 0.000274226680630818
    y: 9.534909622743726e-05
    z: 3.080696478718892e-05
  angular: 
    x: -0.001692265272140503
    y: -0.001226827735081315
    z: -0.003287010360509157
---
header: 
  seq: 1713
  stamp: 
    secs: 1682526353
    nsecs: 974846289
  frame_id: "world_vive"
twist: 
  linear: 
    x: 0.0001208171306643635
    y: 0.0005413240287452936
    z: 0.00020893971668556333
  angular: 
    x: -0.0003517958102747798
    y: -0.0005183156463317573
    z: 0.0018779127858579159
---
header: 
  seq: 1714
  stamp: 
    secs: 1682526354
    nsecs:   8215231
  frame_id: "world_vive"
twist: 
  linear: 
    x: 0.0005076650995761156
    y: 0.0006769337342120707
    z: 0.00036007195012643933
  angular: 
    x: -0.0029400044586509466
    y: -0.005003306083381176
    z: 0.0010522811207920313
---
header: 
  seq: 1715
  stamp: 
    secs: 1682526354
    nsecs:  41596535
  frame_id: "world_vive"
twist: 
  linear: 
    x: 9.333877824246883e-05
    y: 0.000972164620179683
    z: 0.0005078304675407708
  angular: 
    x: 0.0026892859023064375
    y: -0.0004520243965089321
    z: 0.0030601206235587597
---
header: 
  seq: 1716
  stamp: 
    secs: 1682526354
    nsecs:  74905121
  frame_id: "world_vive"
twist: 
  linear: 
    x: -0.0006572543061338365
    y: 0.0006783799617551267
    z: -0.0001774519041646272
  angular: 
    x: 0.003012089291587472
    y: 0.0016213792841881514
    z: -0.002176837995648384
---
header: 
  seq: 1717
  stamp: 
    secs: 1682526354
    nsecs: 108197237
  frame_id: "world_vive"
twist: 
  linear: 
    x: -0.0012561044422909617
    y: 2.7832051273435354e-05
    z: 0.0001732594391796738
  angular: 
    x: -0.00026714455452747643
    y: 0.0019398709991946816
    z: 0.0005936691304668784
---
header: 
  seq: 1718
  stamp: 
    secs: 1682526354
    nsecs: 141528747
  frame_id: "world_vive"
twist: 
  linear: 
    x: -0.0006836349493823946
    y: 0.0005983838345855474
    z: 0.0003614205925259739
  angular: 
    x: -0.0005033371271565557
    y: -0.0025480655021965504
    z: -0.0002880621759686619
---
header: 
  seq: 1719
  stamp: 
    secs: 1682526354
    nsecs: 174929145
  frame_id: "world_vive"
twist: 
  linear: 
    x: 4.142801117268391e-05
    y: -0.00018454807286616415
    z: 0.0005492395721375942
  angular: 
    x: 0.004300227854400873
    y: 0.0006815059459768236
    z: 0.002942744642496109
---
header: 
  seq: 1720
  stamp: 
    secs: 1682526354
    nsecs: 208169629
  frame_id: "world_vive"
twist: 
  linear: 
    x: -0.00031452582334168255
    y: 0.0010289158672094345
    z: 0.00031843871693126857
  angular: 
    x: 0.000550104072317481
    y: 5.26742878719233e-05
    z: -0.0024193490389734507
---
header: 
  seq: 1721
  stamp: 
    secs: 1682526354
    nsecs: 241528154
  frame_id: "world_vive"
twist: 
  linear: 
    x: -0.0003826172323897481
    y: -0.0004996017087250948
    z: -0.00015414554218295962
  angular: 
    x: 0.0005318726762197912
    y: 0.0002756711037363857
    z: 0.0005758265615440905
---
header: 
  seq: 1722
  stamp: 
    secs: 1682526354
    nsecs: 274958337
  frame_id: "world_vive"
twist: 
  linear: 
    x: 0.0010293468367308378
    y: 0.0010956866899505258
    z: -0.0010319013381376863
  angular: 
    x: -0.005528945941478014
    y: -0.00015317648649215698
    z: -0.0015223539667204022
---
header: 
  seq: 1723
  stamp: 
    secs: 1682526354
    nsecs: 308160310
  frame_id: "world_vive"
twist: 
  linear: 
    x: 0.0003865775070153177
    y: -0.0004971726448275149
    z: 0.0006613326841033995
  angular: 
    x: 0.003143389942124486
    y: 0.0008611090015619993
    z: 0.0029060239903628826
---
header: 
  seq: 1724
  stamp: 
    secs: 1682526354
    nsecs: 341480857
  frame_id: "world_vive"
twist: 
  linear: 
    x: -4.444848673301749e-05
    y: -0.00015416546375490725
    z: 0.00032481912057846785
  angular: 
    x: -0.000856975675560534
    y: 7.216743688331917e-05
    z: -0.001033785636536777
---
header: 
  seq: 1725
  stamp: 
    secs: 1682526354
    nsecs: 374867366
  frame_id: "world_vive"
twist: 
  linear: 
    x: -0.00012698175851255655
    y: -0.0016495456220582128
    z: -0.0003402633883524686
  angular: 
    x: 0.001105881528928876
    y: 0.0011914700735360384
    z: -0.0020802305079996586
---
header: 
  seq: 1726
  stamp: 
    secs: 1682526354
    nsecs: 408153082
  frame_id: "world_vive"
twist: 
  linear: 
    x: -0.00021713766909670085
    y: -0.0003463212342467159
    z: -0.0007413002895191312
  angular: 
    x: -0.0040575675666332245
    y: -0.0011266578221693635
    z: -0.0013618525117635727
---
header: 
  seq: 1727
  stamp: 
    secs: 1682526354
    nsecs: 441485276
  frame_id: "world_vive"
twist: 
  linear: 
    x: -0.00037996299215592444
    y: -0.001008588937111199
    z: 0.0009123744675889611
  angular: 
    x: -0.00045117069385014474
    y: 0.0032439744099974632
    z: 0.003359786933287978
---
header: 
  seq: 1728
  stamp: 
    secs: 1682526354
    nsecs: 474923275
  frame_id: "world_vive"
twist: 
  linear: 
    x: -0.00010042291978606954
    y: -0.0006834029918536544
    z: 0.0006504091434180737
  angular: 
    x: 0.0012105293571949005
    y: 0.0001148109367932193
    z: 0.0009599376353435218
---
header: 
  seq: 1729
  stamp: 
    secs: 1682526354
    nsecs: 508148816
  frame_id: "world_vive"
twist: 
  linear: 
    x: 0.00027878579567186534
    y: -0.000527460768353194
    z: -0.00041922059608623385
  angular: 
    x: 0.00025711435591802
    y: 0.0033797926735132933
    z: -0.001994737423956394
---
header: 
  seq: 1730
  stamp: 
    secs: 1682526354
    nsecs: 541519222
  frame_id: "world_vive"
twist: 
  linear: 
    x: -0.00020568254694808275
    y: -0.0009028235799632967
    z: -0.0005360103095881641
  angular: 
    x: -0.0013666681479662657
    y: 0.002720823045819998
    z: -0.003773312782868743
---
header: 
  seq: 1731
  stamp: 
    secs: 1682526354
    nsecs: 574894506
  frame_id: "world_vive"
twist: 
  linear: 
    x: -0.0005068027530796826
    y: -0.0005455330247059464
    z: -0.0001925250398926437
  angular: 
    x: -0.002346587600186467
    y: 0.0018254868919029832
    z: 0.002769597340375185
---
header: 
  seq: 1732
  stamp: 
    secs: 1682526354
    nsecs: 608147912
  frame_id: "world_vive"
twist: 
  linear: 
    x: 0.00022662423725705594
    y: 0.0001742473541526124
    z: -0.00010556822235230356
  angular: 
    x: 0.0013372419634833932
    y: -0.003341925796121359
    z: 0.0022483482025563717
---
header: 
  seq: 1733
  stamp: 
    secs: 1682526354
    nsecs: 641523903
  frame_id: "world_vive"
twist: 
  linear: 
    x: -0.00011826685658888891
    y: -0.00012546585639938712
    z: -0.0001742976892273873
  angular: 
    x: 0.0014360466739162803
    y: 0.0022467155940830708
    z: -0.0025878988672047853
---
header: 
  seq: 1734
  stamp: 
    secs: 1682526354
    nsecs: 674914723
  frame_id: "world_vive"
twist: 
  linear: 
    x: -0.0005694898427464068
    y: 0.000419893505750224
    z: -0.0007393600535579026
  angular: 
    x: -0.0016647852025926113
    y: 0.002086797496303916
    z: -0.0006705361884087324
---
header: 
  seq: 1735
  stamp: 
    secs: 1682526354
    nsecs: 708153420
  frame_id: "world_vive"
twist: 
  linear: 
    x: 0.00032218097476288676
    y: 0.00019719188276212662
    z: 0.0004695516254287213
  angular: 
    x: -0.000881347747053951
    y: -0.0007550223381258547
    z: -0.00010299566929461434
---
header: 
  seq: 1736
  stamp: 
    secs: 1682526354
    nsecs: 741520992
  frame_id: "world_vive"
twist: 
  linear: 
    x: -0.0003602994547691196
    y: -0.0005328743136487901
    z: 0.0007791852112859488
  angular: 
    x: -0.0021818552631884813
    y: -0.002480850787833333
    z: 0.0010061057982966304
---
header: 
  seq: 1737
  stamp: 
    secs: 1682526354
    nsecs: 774881692
  frame_id: "world_vive"
twist: 
  linear: 
    x: -0.0002127843035850674
    y: -0.0011245268397033215
    z: 0.0006618760526180267
  angular: 
    x: 0.008207005448639393
    y: 0.003803989849984646
    z: 0.0007439156179316342
---
header: 
  seq: 1738
  stamp: 
    secs: 1682526354
    nsecs: 808215572
  frame_id: "world_vive"
twist: 
  linear: 
    x: 0.0007823409978300333
    y: 0.0009626582032069564
    z: -0.0005948221078142524
  angular: 
    x: -0.001905814278870821
    y: 0.000439874071162194
    z: -6.538700108649209e-05
---
header: 
  seq: 1739
  stamp: 
    secs: 1682526354
    nsecs: 841525613
  frame_id: "world_vive"
twist: 
  linear: 
    x: -0.000842563109472394
    y: -0.0016872321721166372
    z: -5.506558591150679e-05
  angular: 
    x: 0.003468211740255356
    y: 0.00544488150626421
    z: -0.0007200001273304224
---
header: 
  seq: 1740
  stamp: 
    secs: 1682526354
    nsecs: 874903068
  frame_id: "world_vive"
twist: 
  linear: 
    x: -0.0007958519854582846
    y: 0.000802795693743974
    z: -0.00022626873396802694
  angular: 
    x: -0.004783274605870247
    y: -0.0016097190091386437
    z: -0.0034572803415358067
---
header: 
  seq: 1741
  stamp: 
    secs: 1682526354
    nsecs: 908230296
  frame_id: "world_vive"
twist: 
  linear: 
    x: -0.0008384938118979335
    y: 0.0005934874643571675
    z: -0.00025044119684025645
  angular: 
    x: 0.00208478607237339
    y: 0.0032031377777457237
    z: 0.005125131923705339
---
header: 
  seq: 1742
  stamp: 
    secs: 1682526354
    nsecs: 941767033
  frame_id: "world_vive"
twist: 
  linear: 
    x: -0.00031264539575204253
    y: 0.0009614667505957186
    z: 0.00034044290077872574
  angular: 
    x: -0.00030122563475742936
    y: -0.0009840353159233928
    z: -0.00207732361741364
---
header: 
  seq: 1743
  stamp: 
    secs: 1682526354
    nsecs: 974863748
  frame_id: "world_vive"
twist: 
  linear: 
    x: -0.00100845901761204
    y: 6.325820322672371e-06
    z: 7.753857789793983e-05
  angular: 
    x: 0.0027706949040293694
    y: 0.00584401236847043
    z: 0.0025700489059090614
---
header: 
  seq: 1744
  stamp: 
    secs: 1682526355
    nsecs:   8185902
  frame_id: "world_vive"
twist: 
  linear: 
    x: 0.00061297498177737
    y: 0.0009491638047620654
    z: -0.0003324026765767485
  angular: 
    x: -0.001209842856042087
    y: -0.004142667632550001
    z: 0.0014039616798982024
---
header: 
  seq: 1745
  stamp: 
    secs: 1682526355
    nsecs:  41554927
  frame_id: "world_vive"
twist: 
  linear: 
    x: 0.0008488621679134667
    y: -5.2494862757157534e-05
    z: -0.0007072821608744562
  angular: 
    x: 0.0014630216173827648
    y: 0.0011730206897482276
    z: -0.0021292115561664104
---
header: 
  seq: 1746
  stamp: 
    secs: 1682526355
    nsecs:  74884890
  frame_id: "world_vive"
twist: 
  linear: 
    x: 0.0022509831469506025
    y: -0.0004921671934425831
    z: -0.0007613717461936176
  angular: 
    x: 0.0012168190442025661
    y: -0.0015707938000559807
    z: 0.002007715404033661
---
header: 
  seq: 1747
  stamp: 
    secs: 1682526355
    nsecs: 108244293
  frame_id: "world_vive"
twist: 
  linear: 
    x: 0.0011736603919416666
    y: -0.0009946495993062854
    z: 0.0007187123410403728
  angular: 
    x: 0.0005368870333768427
    y: -0.0007999994559213519
    z: 0.00500014191493392
---
header: 
  seq: 1748
  stamp: 
    secs: 1682526355
    nsecs: 141555331
  frame_id: "world_vive"
twist: 
  linear: 
    x: 0.0016011253464967012
    y: -0.0013937251642346382
    z: -0.0008013227488845587
  angular: 
    x: 0.0017384323291480541
    y: -0.00127165368758142
    z: 0.0002912945637945086
---
header: 
  seq: 1749
  stamp: 
    secs: 1682526355
    nsecs: 174877149
  frame_id: "world_vive"
twist: 
  linear: 
    x: 0.0015675369650125504
    y: -0.0015307893045246601
    z: -0.0010955192847177386
  angular: 
    x: -0.005689967889338732
    y: -0.0010569081641733646
    z: -0.0046990662813186646
---
header: 
  seq: 1750
  stamp: 
    secs: 1682526355
    nsecs: 208215342
  frame_id: "world_vive"
twist: 
  linear: 
    x: 0.0008270195685327053
    y: -0.0001820086472434923
    z: 0.00025978690246120095
  angular: 
    x: 0.0031341183930635452
    y: 0.000597790873143822
    z: 0.00164985959418118
---
header: 
  seq: 1751
  stamp: 
    secs: 1682526355
    nsecs: 241540252
  frame_id: "world_vive"
twist: 
  linear: 
    x: 0.00016889566904865205
    y: -0.0008067803573794663
    z: 0.0009712273604236543
  angular: 
    x: -0.00033542109304107726
    y: -0.001934346742928028
    z: 0.0035723932087421417
---
header: 
  seq: 1752
  stamp: 
    secs: 1682526355
    nsecs: 274878461
  frame_id: "world_vive"
twist: 
  linear: 
    x: -4.53799802926369e-05
    y: -0.001224940991960466
    z: -0.00026745322975330055
  angular: 
    x: -0.005307760089635849
    y: 0.0008292732527479529
    z: -0.00032059199293144047
---
header: 
  seq: 1753
  stamp: 
    secs: 1682526355
    nsecs: 308201633
  frame_id: "world_vive"
twist: 
  linear: 
    x: 0.0012113898992538452
    y: 6.57061900710687e-05
    z: -0.0008020369568839669
  angular: 
    x: -0.0038793839048594236
    y: -0.00031295145163312554
    z: -0.0009949083905667067
---
header: 
  seq: 1754
  stamp: 
    secs: 1682526355
    nsecs: 341536896
  frame_id: "world_vive"
twist: 
  linear: 
    x: 0.0008661077008582652
    y: -0.0005876068607904017
    z: -3.256833906561951e-06
  angular: 
    x: 0.0009505304042249918
    y: -0.0012163560604676604
    z: -0.0003200744395144284
---
header: 
  seq: 1755
  stamp: 
    secs: 1682526355
    nsecs: 374909574
  frame_id: "world_vive"
twist: 
  linear: 
    x: 0.0002348685811739415
    y: 0.00027872592909261584
    z: -0.0007000162149779499
  angular: 
    x: -0.0026489305309951305
    y: 0.002418458927422762
    z: -0.0003947667428292334
---
header: 
  seq: 1756
  stamp: 
    secs: 1682526355
    nsecs: 408234762
  frame_id: "world_vive"
twist: 
  linear: 
    x: -0.0003301373799331486
    y: 8.468760643154383e-05
    z: -0.0001952634920598939
  angular: 
    x: -0.001107055228203535
    y: -0.004987192340195179
    z: 0.004235260654240847
---
header: 
  seq: 1757
  stamp: 
    secs: 1682526355
    nsecs: 441542529
  frame_id: "world_vive"
twist: 
  linear: 
    x: -0.00015789468307048082
    y: 0.001997544663026929
    z: -0.0003569810651242733
  angular: 
    x: 0.004156080540269613
    y: -0.0011795959435403347
    z: -0.0027707016561180353
---
header: 
  seq: 1758
  stamp: 
    secs: 1682526355
    nsecs: 474839675
  frame_id: "world_vive"
twist: 
  linear: 
    x: -0.0013032553251832724
    y: -0.0004580412642098963
    z: 0.0001768146175891161
  angular: 
    x: -0.0011904051061719656
    y: -0.0008698114543221891
    z: 0.0010632183402776718
---
header: 
  seq: 1759
  stamp: 
    secs: 1682526355
    nsecs: 508242487
  frame_id: "world_vive"
twist: 
  linear: 
    x: -0.0004005169903393835
    y: 0.0017658015713095665
    z: -0.00020112839411012828
  angular: 
    x: -0.005721540655940771
    y: 0.0035867022816091776
    z: -0.009463919326663017
---
header: 
  seq: 1760
  stamp: 
    secs: 1682526355
    nsecs: 541547936
  frame_id: "world_vive"
twist: 
  linear: 
    x: 0.0015037357807159424
    y: -0.0004976308555342257
    z: -0.00018154220015276223
  angular: 
    x: -0.008658497594296932
    y: 0.0033280174247920513
    z: -0.046675048768520355
---
header: 
  seq: 1761
  stamp: 
    secs: 1682526355
    nsecs: 574868334
  frame_id: "world_vive"
twist: 
  linear: 
    x: 0.0018083667382597923
    y: 0.0010124212130904198
    z: -0.000733586901333183
  angular: 
    x: -0.022672800347208977
    y: 0.0025135064497590065
    z: -0.06125827878713608
---
header: 
  seq: 1762
  stamp: 
    secs: 1682526355
    nsecs: 608187278
  frame_id: "world_vive"
twist: 
  linear: 
    x: -0.0020117361564189196
    y: 0.00022243979037739336
    z: 0.0010543200187385082
  angular: 
    x: -0.003708853619173169
    y: 0.00013546683476306498
    z: -0.0031822090968489647
---
header: 
  seq: 1763
  stamp: 
    secs: 1682526355
    nsecs: 641520954
  frame_id: "world_vive"
twist: 
  linear: 
    x: -0.006605999078601599
    y: 0.0016700905980542302
    z: 0.0017292797565460205
  angular: 
    x: 0.02288380265235901
    y: -0.00530814565718174
    z: 0.07734090834856033
---
header: 
  seq: 1764
  stamp: 
    secs: 1682526355
    nsecs: 674872486
  frame_id: "world_vive"
twist: 
  linear: 
    x: -0.005396027117967606
    y: -0.0013697664253413677
    z: -0.0006258978391997516
  angular: 
    x: 0.0034434066619724035
    y: -0.00020100247638765723
    z: 0.06838937103748322
---
header: 
  seq: 1765
  stamp: 
    secs: 1682526355
    nsecs: 708278975
  frame_id: "world_vive"
twist: 
  linear: 
    x: -0.000739161972887814
    y: -0.000402735429815948
    z: -0.0011787229450419545
  angular: 
    x: -0.020749114453792572
    y: 0.001398775028064847
    z: -0.011095693334937096
---
header: 
  seq: 1766
  stamp: 
    secs: 1682526355
    nsecs: 741646323
  frame_id: "world_vive"
twist: 
  linear: 
    x: 0.0015388738829642534
    y: -0.0010821194155141711
    z: -0.004186446778476238
  angular: 
    x: -0.0572490356862545
    y: 0.018876606598496437
    z: -0.05862182378768921
---
header: 
  seq: 1767
  stamp: 
    secs: 1682526355
    nsecs: 774833006
  frame_id: "world_vive"
twist: 
  linear: 
    x: -0.002203543670475483
    y: -0.0002398258075118065
    z: -0.0010481340577825904
  angular: 
    x: -0.011866062879562378
    y: 0.009401356801390648
    z: -0.0010993039468303323
---
header: 
  seq: 1768
  stamp: 
    secs: 1682526355
    nsecs: 808243605
  frame_id: "world_vive"
twist: 
  linear: 
    x: -0.0062594348564744
    y: 6.401904101949185e-05
    z: 0.0030598146840929985
  angular: 
    x: 0.053655486553907394
    y: -0.0015273218741640449
    z: 0.08278284966945648
---
header: 
  seq: 1769
  stamp: 
    secs: 1682526355
    nsecs: 841550094
  frame_id: "world_vive"
twist: 
  linear: 
    x: -0.008215620182454586
    y: -4.836536027141847e-05
    z: 0.0013582201208919287
  angular: 
    x: 0.004429046995937824
    y: -0.0013388009974732995
    z: 0.1189337968826294
---
header: 
  seq: 1770
  stamp: 
    secs: 1682526355
    nsecs: 874802651
  frame_id: "world_vive"
twist: 
  linear: 
    x: -0.006774321664124727
    y: -0.0016049878904595971
    z: -0.0006591739365831017
  angular: 
    x: -0.02447376772761345
    y: 0.006481274496763945
    z: 0.086650051176548
---
header: 
  seq: 1771
  stamp: 
    secs: 1682526355
    nsecs: 908154759
  frame_id: "world_vive"
twist: 
  linear: 
    x: -0.0012680983636528254
    y: 0.0006607230752706528
    z: 0.0013524256646633148
  angular: 
    x: 0.020522117614746094
    y: -0.0064115095883607864
    z: 0.025752883404493332
---
header: 
  seq: 1772
  stamp: 
    secs: 1682526355
    nsecs: 941527498
  frame_id: "world_vive"
twist: 
  linear: 
    x: 0.0006805887096561491
    y: 0.0006939268787391484
    z: 0.002320587169378996
  angular: 
    x: 0.035335492342710495
    y: -0.005678558722138405
    z: -0.01277847494930029
---
header: 
  seq: 1773
  stamp: 
    secs: 1682526355
    nsecs: 974843877
  frame_id: "world_vive"
twist: 
  linear: 
    x: -0.0012205757666379213
    y: -0.0020702402107417583
    z: -0.0022815328557044268
  angular: 
    x: -0.03647047281265259
    y: 0.0029655068647116423
    z: 0.0014414023607969284
---
header: 
  seq: 1774
  stamp: 
    secs: 1682526356
    nsecs:   8244366
  frame_id: "world_vive"
twist: 
  linear: 
    x: -0.005390985403209925
    y: 0.0006734952912665904
    z: -0.0006440244033001363
  angular: 
    x: -0.00669505400583148
    y: -0.0057260519824922085
    z: 0.07317281514406204
---
header: 
  seq: 1775
  stamp: 
    secs: 1682526356
    nsecs:  41594637
  frame_id: "world_vive"
twist: 
  linear: 
    x: -0.011510412208735943
    y: 0.0019445596262812614
    z: 0.0025073434226214886
  angular: 
    x: 0.06041558086872101
    y: -0.029869388788938522
    z: 0.21804270148277283
---
header: 
  seq: 1776
  stamp: 
    secs: 1682526356
    nsecs:  74917989
  frame_id: "world_vive"
twist: 
  linear: 
    x: -0.021077608689665794
    y: -0.0015770880272611976
    z: 0.0007697721011936665
  angular: 
    x: 0.02258913777768612
    y: -0.005008405540138483
    z: 0.35643860697746277
---
header: 
  seq: 1777
  stamp: 
    secs: 1682526356
    nsecs: 108259929
  frame_id: "world_vive"
twist: 
  linear: 
    x: -0.03025181218981743
    y: 0.0034997237380594015
    z: 0.0026941727846860886
  angular: 
    x: 0.061998941004276276
    y: -0.007726885378360748
    z: 0.5609912872314453
---
header: 
  seq: 1778
  stamp: 
    secs: 1682526356
    nsecs: 141424071
  frame_id: "world_vive"
twist: 
  linear: 
    x: -0.035548873245716095
    y: -0.000337701931130141
    z: -0.001471795025281608
  angular: 
    x: 0.017233185470104218
    y: -0.035522542893886566
    z: 0.6234017014503479
---
header: 
  seq: 1779
  stamp: 
    secs: 1682526356
    nsecs: 174800771
  frame_id: "world_vive"
twist: 
  linear: 
    x: -0.036019276827573776
    y: 0.005032588727772236
    z: 0.003927228040993214
  angular: 
    x: 0.07500027865171432
    y: -0.05827797204256058
    z: 0.6490931510925293
---
header: 
  seq: 1780
  stamp: 
    secs: 1682526356
    nsecs: 208112636
  frame_id: "world_vive"
twist: 
  linear: 
    x: -0.030594628304243088
    y: -0.000898111960850656
    z: 0.00539628928527236
  angular: 
    x: 0.11018945276737213
    y: -0.07813940942287445
    z: 0.5799052119255066
---
header: 
  seq: 1781
  stamp: 
    secs: 1682526356
    nsecs: 241454767
  frame_id: "world_vive"
twist: 
  linear: 
    x: -0.028810733929276466
    y: 0.00036712930887006223
    z: 0.004451401066035032
  angular: 
    x: 0.09487896412611008
    y: -0.0856190100312233
    z: 0.5675284266471863
---
header: 
  seq: 1782
  stamp: 
    secs: 1682526356
    nsecs: 274820240
  frame_id: "world_vive"
twist: 
  linear: 
    x: -0.024603217840194702
    y: 0.0008535282104276121
    z: 0.005223461426794529
  angular: 
    x: 0.07578901946544647
    y: -0.05211428552865982
    z: 0.3725358247756958
---
header: 
  seq: 1783
  stamp: 
    secs: 1682526356
    nsecs: 308133941
  frame_id: "world_vive"
twist: 
  linear: 
    x: -0.011476308107376099
    y: -0.00459980359300971
    z: 0.007532522547990084
  angular: 
    x: 0.11405912041664124
    y: -0.02921890839934349
    z: 0.13358654081821442
---
header: 
  seq: 1784
  stamp: 
    secs: 1682526356
    nsecs: 341464032
  frame_id: "world_vive"
twist: 
  linear: 
    x: -0.001387969241477549
    y: 0.0014922312693670392
    z: 0.0035025214310735464
  angular: 
    x: -0.0005251567345112562
    y: 0.012227848172187805
    z: -0.1278747022151947
---
header: 
  seq: 1785
  stamp: 
    secs: 1682526356
    nsecs: 374769149
  frame_id: "world_vive"
twist: 
  linear: 
    x: 0.002982649253681302
    y: 0.017385615035891533
    z: -0.005802497733384371
  angular: 
    x: -0.14245593547821045
    y: 0.011367212980985641
    z: -0.06408202648162842
---
header: 
  seq: 1786
  stamp: 
    secs: 1682526356
    nsecs: 408120291
  frame_id: "world_vive"
twist: 
  linear: 
    x: 0.0007511802250519395
    y: 0.02692432329058647
    z: -0.011653886176645756
  angular: 
    x: -0.15440067648887634
    y: 0.07140356302261353
    z: 0.14476339519023895
---
header: 
  seq: 1787
  stamp: 
    secs: 1682526356
    nsecs: 441428515
  frame_id: "world_vive"
twist: 
  linear: 
    x: 0.01133204996585846
    y: 0.025876376777887344
    z: -0.013537295162677765
  angular: 
    x: -0.3325658440589905
    y: -0.02319280616939068
    z: -0.10047146677970886
---
header: 
  seq: 1788
  stamp: 
    secs: 1682526356
    nsecs: 474769808
  frame_id: "world_vive"
twist: 
  linear: 
    x: 0.024964170530438423
    y: 0.027001479640603065
    z: -0.010567832738161087
  angular: 
    x: -0.12465343624353409
    y: 0.1299012303352356
    z: -0.2436964064836502
---
header: 
  seq: 1789
  stamp: 
    secs: 1682526356
    nsecs: 508133581
  frame_id: "world_vive"
twist: 
  linear: 
    x: 0.03689591586589813
    y: 0.03045748919248581
    z: -0.012543084099888802
  angular: 
    x: 0.0890754982829094
    y: 0.2987324595451355
    z: -0.36836251616477966
---
header: 
  seq: 1790
  stamp: 
    secs: 1682526356
    nsecs: 541463980
  frame_id: "world_vive"
twist: 
  linear: 
    x: 0.04164397343993187
    y: 0.04001791775226593
    z: -0.020750250667333603
  angular: 
    x: 0.25442394614219666
    y: 0.460578590631485
    z: -0.26521819829940796
---
header: 
  seq: 1791
  stamp: 
    secs: 1682526356
    nsecs: 574769471
  frame_id: "world_vive"
twist: 
  linear: 
    x: 0.03896868973970413
    y: 0.05702200531959534
    z: -0.025250878185033798
  angular: 
    x: 0.22018051147460938
    y: 0.4460297226905823
    z: -0.06797846406698227
---
header: 
  seq: 1792
  stamp: 
    secs: 1682526356
    nsecs: 608075456
  frame_id: "world_vive"
twist: 
  linear: 
    x: 0.031950924545526505
    y: 0.07552722096443176
    z: -0.03158518671989441
  angular: 
    x: 0.1165262758731842
    y: 0.4648814797401428
    z: 0.16813363134860992
---
header: 
  seq: 1793
  stamp: 
    secs: 1682526356
    nsecs: 641454616
  frame_id: "world_vive"
twist: 
  linear: 
    x: 0.01583961397409439
    y: 0.07991399616003036
    z: -0.02820543758571148
  angular: 
    x: -0.035300448536872864
    y: 0.4344424307346344
    z: 0.3328733444213867
---
header: 
  seq: 1794
  stamp: 
    secs: 1682526356
    nsecs: 674754084
  frame_id: "world_vive"
twist: 
  linear: 
    x: -0.00023753308050800115
    y: 0.06778392940759659
    z: -0.030441327020525932
  angular: 
    x: -0.11291133612394333
    y: 0.45336851477622986
    z: 0.32258790731430054
---
header: 
  seq: 1795
  stamp: 
    secs: 1682526356
    nsecs: 708135700
  frame_id: "world_vive"
twist: 
  linear: 
    x: -0.015463569201529026
    y: 0.06067565828561783
    z: -0.029576478525996208
  angular: 
    x: 0.013422520831227303
    y: 0.4219523072242737
    z: 0.3778173327445984
---
header: 
  seq: 1796
  stamp: 
    secs: 1682526356
    nsecs: 741441702
  frame_id: "world_vive"
twist: 
  linear: 
    x: -0.03669276833534241
    y: 0.06455003470182419
    z: -0.034276917576789856
  angular: 
    x: 0.18497146666049957
    y: 0.43019863963127136
    z: 0.4511373043060303
---
header: 
  seq: 1797
  stamp: 
    secs: 1682526356
    nsecs: 774796098
  frame_id: "world_vive"
twist: 
  linear: 
    x: -0.06196541711688042
    y: 0.0742051750421524
    z: -0.03721698001027107
  angular: 
    x: 0.2549494504928589
    y: 0.3462967574596405
    z: 0.4644472599029541
---
header: 
  seq: 1798
  stamp: 
    secs: 1682526356
    nsecs: 808088905
  frame_id: "world_vive"
twist: 
  linear: 
    x: -0.09680099785327911
    y: 0.08829241991043091
    z: -0.034166447818279266
  angular: 
    x: 0.29493770003318787
    y: 0.2135368436574936
    z: 0.43543118238449097
---
header: 
  seq: 1799
  stamp: 
    secs: 1682526356
    nsecs: 841478914
  frame_id: "world_vive"
twist: 
  linear: 
    x: -0.13435685634613037
    y: 0.1023433655500412
    z: -0.02979346178472042
  angular: 
    x: 0.28692343831062317
    y: 0.1092112734913826
    z: 0.26892539858818054
---
header: 
  seq: 1800
  stamp: 
    secs: 1682526356
    nsecs: 874765297
  frame_id: "world_vive"
twist: 
  linear: 
    x: -0.17231696844100952
    y: 0.12026666104793549
    z: -0.020052505657076836
  angular: 
    x: 0.2450120747089386
    y: -0.03293563798069954
    z: 0.09739819169044495
---
header: 
  seq: 1801
  stamp: 
    secs: 1682526356
    nsecs: 908138270
  frame_id: "world_vive"
twist: 
  linear: 
    x: -0.2151360809803009
    y: 0.1430416703224182
    z: -0.007266642991453409
  angular: 
    x: 0.12561479210853577
    y: -0.1741660237312317
    z: -0.02011573128402233
---
header: 
  seq: 1802
  stamp: 
    secs: 1682526356
    nsecs: 941464890
  frame_id: "world_vive"
twist: 
  linear: 
    x: -0.24825704097747803
    y: 0.15906307101249695
    z: 0.004672050476074219
  angular: 
    x: -0.05165091156959534
    y: -0.2780296206474304
    z: -0.20146284997463226
---
header: 
  seq: 1803
  stamp: 
    secs: 1682526356
    nsecs: 974795142
  frame_id: "world_vive"
twist: 
  linear: 
    x: -0.2784084379673004
    y: 0.1588926911354065
    z: 0.015675963833928108
  angular: 
    x: -0.1138581782579422
    y: -0.288684606552124
    z: -0.5063114762306213
---
header: 
  seq: 1804
  stamp: 
    secs: 1682526357
    nsecs:   8138626
  frame_id: "world_vive"
twist: 
  linear: 
    x: -0.29867127537727356
    y: 0.144603431224823
    z: 0.027105309069156647
  angular: 
    x: -0.04319695383310318
    y: -0.25637567043304443
    z: -0.7783474326133728
---
header: 
  seq: 1805
  stamp: 
    secs: 1682526357
    nsecs:  41411804
  frame_id: "world_vive"
twist: 
  linear: 
    x: -0.30740317702293396
    y: 0.12469035387039185
    z: 0.03769451752305031
  angular: 
    x: -0.02774687111377716
    y: -0.17198412120342255
    z: -0.9983952045440674
---
header: 
  seq: 1806
  stamp: 
    secs: 1682526357
    nsecs:  74822537
  frame_id: "world_vive"
twist: 
  linear: 
    x: -0.29677122831344604
    y: 0.10659477859735489
    z: 0.043451160192489624
  angular: 
    x: -0.17141325771808624
    y: -0.08906485140323639
    z: -1.2078605890274048
---
header: 
  seq: 1807
  stamp: 
    secs: 1682526357
    nsecs: 108119648
  frame_id: "world_vive"
twist: 
  linear: 
    x: -0.27843737602233887
    y: 0.08088536560535431
    z: 0.048039525747299194
  angular: 
    x: -0.3073064684867859
    y: -0.03397214040160179
    z: -1.236863374710083
---
header: 
  seq: 1808
  stamp: 
    secs: 1682526357
    nsecs: 141451849
  frame_id: "world_vive"
twist: 
  linear: 
    x: -0.2454112023115158
    y: 0.06497897952795029
    z: 0.04827864468097687
  angular: 
    x: -0.33825600147247314
    y: 0.03701591119170189
    z: -1.081325650215149
---
header: 
  seq: 1809
  stamp: 
    secs: 1682526357
    nsecs: 174778130
  frame_id: "world_vive"
twist: 
  linear: 
    x: -0.20322076976299286
    y: 0.06400486826896667
    z: 0.047864459455013275
  angular: 
    x: -0.20170040428638458
    y: 0.0902150496840477
    z: -0.8103581666946411
---
header: 
  seq: 1810
  stamp: 
    secs: 1682526357
    nsecs: 208119876
  frame_id: "world_vive"
twist: 
  linear: 
    x: -0.1732087880373001
    y: 0.06791789084672928
    z: 0.057007960975170135
  angular: 
    x: 0.11759260296821594
    y: 0.13936804234981537
    z: -0.2848253548145294
---
header: 
  seq: 1811
  stamp: 
    secs: 1682526357
    nsecs: 241464052
  frame_id: "world_vive"
twist: 
  linear: 
    x: -0.13511449098587036
    y: 0.07925566285848618
    z: 0.05619971454143524
  angular: 
    x: 0.3848932683467865
    y: 0.19387218356132507
    z: 0.4091750383377075
---
header: 
  seq: 1812
  stamp: 
    secs: 1682526357
    nsecs: 274778142
  frame_id: "world_vive"
twist: 
  linear: 
    x: -0.105782650411129
    y: 0.09965535253286362
    z: 0.0559580996632576
  angular: 
    x: 0.4684235751628876
    y: 0.20155185461044312
    z: 1.0439560413360596
---
header: 
  seq: 1813
  stamp: 
    secs: 1682526357
    nsecs: 308134965
  frame_id: "world_vive"
twist: 
  linear: 
    x: -0.08433995395898819
    y: 0.12084124237298965
    z: 0.05534578114748001
  angular: 
    x: 0.42960241436958313
    y: 0.19744907319545746
    z: 1.3827550411224365
---
header: 
  seq: 1814
  stamp: 
    secs: 1682526357
    nsecs: 341455045
  frame_id: "world_vive"
twist: 
  linear: 
    x: -0.07808694988489151
    y: 0.1488262265920639
    z: 0.06065160781145096
  angular: 
    x: 0.34575584530830383
    y: 0.16900980472564697
    z: 1.4421498775482178
---
header: 
  seq: 1815
  stamp: 
    secs: 1682526357
    nsecs: 374784695
  frame_id: "world_vive"
twist: 
  linear: 
    x: -0.08733800798654556
    y: 0.1739901751279831
    z: 0.06911330670118332
  angular: 
    x: 0.2006727159023285
    y: 0.06576453149318695
    z: 1.3237862586975098
---
header: 
  seq: 1816
  stamp: 
    secs: 1682526357
    nsecs: 408202557
  frame_id: "world_vive"
twist: 
  linear: 
    x: -0.11152341961860657
    y: 0.19468717277050018
    z: 0.08036401122808456
  angular: 
    x: -0.0007668617181479931
    y: -0.044888224452733994
    z: 1.0724657773971558
---
header: 
  seq: 1817
  stamp: 
    secs: 1682526357
    nsecs: 441480144
  frame_id: "world_vive"
twist: 
  linear: 
    x: -0.14791089296340942
    y: 0.19914855062961578
    z: 0.10238812118768692
  angular: 
    x: -0.04508556053042412
    y: -0.16489024460315704
    z: 0.658318817615509
---
header: 
  seq: 1818
  stamp: 
    secs: 1682526357
    nsecs: 474774214
  frame_id: "world_vive"
twist: 
  linear: 
    x: -0.19170339405536652
    y: 0.20140156149864197
    z: 0.12240131944417953
  angular: 
    x: -0.08569587767124176
    y: -0.1437128484249115
    z: 0.16359968483448029
---
header: 
  seq: 1819
  stamp: 
    secs: 1682526357
    nsecs: 508151287
  frame_id: "world_vive"
twist: 
  linear: 
    x: -0.23996999859809875
    y: 0.21322305500507355
    z: 0.14430062472820282
  angular: 
    x: -0.24189622700214386
    y: -0.21860699355602264
    z: -0.23997057974338531
---
header: 
  seq: 1820
  stamp: 
    secs: 1682526357
    nsecs: 541410502
  frame_id: "world_vive"
twist: 
  linear: 
    x: -0.29014885425567627
    y: 0.22329194843769073
    z: 0.1576852798461914
  angular: 
    x: -0.49914491176605225
    y: -0.2562783658504486
    z: -0.5616974234580994
---
header: 
  seq: 1821
  stamp: 
    secs: 1682526357
    nsecs: 574741119
  frame_id: "world_vive"
twist: 
  linear: 
    x: -0.3363775610923767
    y: 0.2174592912197113
    z: 0.1737682968378067
  angular: 
    x: -0.5086744427680969
    y: -0.23939338326454163
    z: -0.7402552962303162
---
header: 
  seq: 1822
  stamp: 
    secs: 1682526357
    nsecs: 608074284
  frame_id: "world_vive"
twist: 
  linear: 
    x: -0.37355169653892517
    y: 0.20332542061805725
    z: 0.18707598745822906
  angular: 
    x: -0.35650649666786194
    y: -0.13863633573055267
    z: -0.7913722991943359
---
header: 
  seq: 1823
  stamp: 
    secs: 1682526357
    nsecs: 641526684
  frame_id: "world_vive"
twist: 
  linear: 
    x: -0.4020775854587555
    y: 0.1852177381515503
    z: 0.19490185379981995
  angular: 
    x: -0.26161831617355347
    y: 0.05817987024784088
    z: -0.7749632000923157
---
header: 
  seq: 1824
  stamp: 
    secs: 1682526357
    nsecs: 674790976
  frame_id: "world_vive"
twist: 
  linear: 
    x: -0.4207313060760498
    y: 0.1686403453350067
    z: 0.19478002190589905
  angular: 
    x: -0.37176966667175293
    y: 0.24611248075962067
    z: -0.638201117515564
---
header: 
  seq: 1825
  stamp: 
    secs: 1682526357
    nsecs: 708136742
  frame_id: "world_vive"
twist: 
  linear: 
    x: -0.4363386929035187
    y: 0.14733920991420746
    z: 0.1942020058631897
  angular: 
    x: -0.3092062175273895
    y: 0.4513716697692871
    z: -0.5032946467399597
---
header: 
  seq: 1826
  stamp: 
    secs: 1682526357
    nsecs: 741429082
  frame_id: "world_vive"
twist: 
  linear: 
    x: -0.444691926240921
    y: 0.11156521737575531
    z: 0.1986677050590515
  angular: 
    x: -0.0018958979053422809
    y: 0.6623939871788025
    z: -0.4321895241737366
---
header: 
  seq: 1827
  stamp: 
    secs: 1682526357
    nsecs: 774758919
  frame_id: "world_vive"
twist: 
  linear: 
    x: -0.4512608051300049
    y: 0.08415894955396652
    z: 0.19570805132389069
  angular: 
    x: 0.16697907447814941
    y: 0.8638438582420349
    z: -0.36565232276916504
---
header: 
  seq: 1828
  stamp: 
    secs: 1682526357
    nsecs: 808098478
  frame_id: "world_vive"
twist: 
  linear: 
    x: -0.45419108867645264
    y: 0.06792329251766205
    z: 0.1890229731798172
  angular: 
    x: 0.1027340218424797
    y: 0.9468899369239807
    z: -0.2642107903957367
---
header: 
  seq: 1829
  stamp: 
    secs: 1682526357
    nsecs: 841408994
  frame_id: "world_vive"
twist: 
  linear: 
    x: -0.45569857954978943
    y: 0.05663295090198517
    z: 0.18200978636741638
  angular: 
    x: 0.04054957628250122
    y: 0.9961619973182678
    z: -0.22257888317108154
---
header: 
  seq: 1830
  stamp: 
    secs: 1682526357
    nsecs: 874791723
  frame_id: "world_vive"
twist: 
  linear: 
    x: -0.460446298122406
    y: 0.037401750683784485
    z: 0.17499811947345734
  angular: 
    x: -0.11991535872220993
    y: 0.9567821621894836
    z: -0.2008298635482788
---
header: 
  seq: 1831
  stamp: 
    secs: 1682526357
    nsecs: 908092776
  frame_id: "world_vive"
twist: 
  linear: 
    x: -0.4655029773712158
    y: 0.03590855002403259
    z: 0.15901510417461395
  angular: 
    x: -0.42215290665626526
    y: 0.8485305309295654
    z: -0.1669931411743164
---
header: 
  seq: 1832
  stamp: 
    secs: 1682526357
    nsecs: 941465360
  frame_id: "world_vive"
twist: 
  linear: 
    x: -0.4596620798110962
    y: 0.04486275464296341
    z: 0.13374146819114685
  angular: 
    x: -0.600811243057251
    y: 0.7486361265182495
    z: -0.2624886929988861
---
header: 
  seq: 1833
  stamp: 
    secs: 1682526357
    nsecs: 974768800
  frame_id: "world_vive"
twist: 
  linear: 
    x: -0.43089520931243896
    y: 0.039332956075668335
    z: 0.1180330440402031
  angular: 
    x: -0.5027878284454346
    y: 0.3205276131629944
    z: -0.315756231546402
---
header: 
  seq: 1834
  stamp: 
    secs: 1682526358
    nsecs:   8131761
  frame_id: "world_vive"
twist: 
  linear: 
    x: -0.3878169655799866
    y: -0.006384531036019325
    z: 0.11951547116041183
  angular: 
    x: -1.097400188446045
    y: -0.07772473990917206
    z: 0.06830278784036636
---
header: 
  seq: 1835
  stamp: 
    secs: 1682526358
    nsecs:  41435567
  frame_id: "world_vive"
twist: 
  linear: 
    x: -0.3697556257247925
    y: -0.011115370318293571
    z: 0.08230795711278915
  angular: 
    x: -1.3306753635406494
    y: -0.3027317225933075
    z: 0.36688289046287537
---
header: 
  seq: 1836
  stamp: 
    secs: 1682526358
    nsecs:  74797563
  frame_id: "world_vive"
twist: 
  linear: 
    x: -0.34944242238998413
    y: 0.008066698908805847
    z: 0.02275649830698967
  angular: 
    x: -0.8927997350692749
    y: -0.4303712546825409
    z: 0.17892341315746307
---
header: 
  seq: 1837
  stamp: 
    secs: 1682526358
    nsecs: 108168422
  frame_id: "world_vive"
twist: 
  linear: 
    x: -0.3626701533794403
    y: 0.028485819697380066
    z: -0.022434387356042862
  angular: 
    x: -0.20919761061668396
    y: -0.02560259960591793
    z: -0.01740875095129013
---
header: 
  seq: 1838
  stamp: 
    secs: 1682526358
    nsecs: 141481672
  frame_id: "world_vive"
twist: 
  linear: 
    x: -0.353568971157074
    y: 0.037299107760190964
    z: -0.03114788979291916
  angular: 
    x: 0.23418742418289185
    y: -0.014844745397567749
    z: -0.3421187698841095
---
header: 
  seq: 1839
  stamp: 
    secs: 1682526358
    nsecs: 174798586
  frame_id: "world_vive"
twist: 
  linear: 
    x: -0.345957487821579
    y: 0.04836735874414444
    z: -0.05923820659518242
  angular: 
    x: 0.5943190455436707
    y: 0.046788088977336884
    z: -0.639064610004425
---
header: 
  seq: 1840
  stamp: 
    secs: 1682526358
    nsecs: 208076718
  frame_id: "world_vive"
twist: 
  linear: 
    x: -0.3127695620059967
    y: 0.03866371139883995
    z: -0.05824851989746094
  angular: 
    x: 0.6832582354545593
    y: -0.035563740879297256
    z: -0.4661966860294342
---
header: 
  seq: 1841
  stamp: 
    secs: 1682526358
    nsecs: 241471100
  frame_id: "world_vive"
twist: 
  linear: 
    x: -0.27036839723587036
    y: 0.03715236485004425
    z: -0.054334092885255814
  angular: 
    x: 0.5782620906829834
    y: 0.04028179869055748
    z: -0.07377029210329056
---
header: 
  seq: 1842
  stamp: 
    secs: 1682526358
    nsecs: 274770733
  frame_id: "world_vive"
twist: 
  linear: 
    x: -0.23381924629211426
    y: 0.05022118240594864
    z: -0.05615973472595215
  angular: 
    x: 0.28166019916534424
    y: 0.22997130453586578
    z: 0.011023283004760742
---
header: 
  seq: 1843
  stamp: 
    secs: 1682526358
    nsecs: 308154597
  frame_id: "world_vive"
twist: 
  linear: 
    x: -0.2053229957818985
    y: 0.07044091075658798
    z: -0.05420781672000885
  angular: 
    x: 0.03907323256134987
    y: 0.3583507537841797
    z: 0.029812917113304138
---
header: 
  seq: 1844
  stamp: 
    secs: 1682526358
    nsecs: 341471138
  frame_id: "world_vive"
twist: 
  linear: 
    x: -0.18476690351963043
    y: 0.10117276757955551
    z: -0.06396956741809845
  angular: 
    x: -0.13822312653064728
    y: 0.43324822187423706
    z: 0.034363243728876114
---
header: 
  seq: 1845
  stamp: 
    secs: 1682526358
    nsecs: 374789448
  frame_id: "world_vive"
twist: 
  linear: 
    x: -0.16958147287368774
    y: 0.13180218636989594
    z: -0.06546853482723236
  angular: 
    x: -0.26183465123176575
    y: 0.32492756843566895
    z: 0.027051135897636414
---
header: 
  seq: 1846
  stamp: 
    secs: 1682526358
    nsecs: 408156653
  frame_id: "world_vive"
twist: 
  linear: 
    x: -0.15616686642169952
    y: 0.14656513929367065
    z: -0.06862606108188629
  angular: 
    x: -0.42494097352027893
    y: 0.2876736521720886
    z: 0.08503040671348572
---
header: 
  seq: 1847
  stamp: 
    secs: 1682526358
    nsecs: 441497830
  frame_id: "world_vive"
twist: 
  linear: 
    x: -0.14934387803077698
    y: 0.12903067469596863
    z: -0.06921075284481049
  angular: 
    x: -0.415861040353775
    y: 0.20842665433883667
    z: 0.22513332962989807
---
header: 
  seq: 1848
  stamp: 
    secs: 1682526358
    nsecs: 474786794
  frame_id: "world_vive"
twist: 
  linear: 
    x: -0.15641732513904572
    y: 0.10573773086071014
    z: -0.06755950301885605
  angular: 
    x: -0.2816978394985199
    y: 0.13655208051204681
    z: 0.20309273898601532
---
header: 
  seq: 1849
  stamp: 
    secs: 1682526358
    nsecs: 508098664
  frame_id: "world_vive"
twist: 
  linear: 
    x: -0.16407425701618195
    y: 0.08112344145774841
    z: -0.06604035943746567
  angular: 
    x: -0.10236549377441406
    y: 0.05151527374982834
    z: 0.15423797070980072
---
header: 
  seq: 1850
  stamp: 
    secs: 1682526358
    nsecs: 541503231
  frame_id: "world_vive"
twist: 
  linear: 
    x: -0.16861198842525482
    y: 0.06043083965778351
    z: -0.04906794801354408
  angular: 
    x: 0.030503226444125175
    y: -0.12259475141763687
    z: 0.152774378657341
---
header: 
  seq: 1851
  stamp: 
    secs: 1682526358
    nsecs: 574759539
  frame_id: "world_vive"
twist: 
  linear: 
    x: -0.17906758189201355
    y: 0.041953571140766144
    z: -0.03585221990942955
  angular: 
    x: 0.07053139060735703
    y: -0.11443685740232468
    z: 0.11416123062372208
---
header: 
  seq: 1852
  stamp: 
    secs: 1682526358
    nsecs: 608133450
  frame_id: "world_vive"
twist: 
  linear: 
    x: -0.18310903012752533
    y: 0.03335859999060631
    z: -0.024264255538582802
  angular: 
    x: -0.019469058141112328
    y: -0.23473992943763733
    z: -0.022157929837703705
---
header: 
  seq: 1853
  stamp: 
    secs: 1682526358
    nsecs: 641420827
  frame_id: "world_vive"
twist: 
  linear: 
    x: -0.18696945905685425
    y: 0.03033711574971676
    z: -0.020205827429890633
  angular: 
    x: -0.1682642549276352
    y: -0.3563113510608673
    z: -0.20927034318447113
---
header: 
  seq: 1854
  stamp: 
    secs: 1682526358
    nsecs: 674824861
  frame_id: "world_vive"
twist: 
  linear: 
    x: -0.1755763292312622
    y: -0.024718811735510826
    z: 0.020768238231539726
  angular: 
    x: 0.46079039573669434
    y: -0.7500361204147339
    z: -0.8777300119400024
---
header: 
  seq: 1855
  stamp: 
    secs: 1682526358
    nsecs: 708133794
  frame_id: "world_vive"
twist: 
  linear: 
    x: -0.16491514444351196
    y: -0.1261908859014511
    z: 0.03571499511599541
  angular: 
    x: 1.2644377946853638
    y: -0.7408830523490906
    z: -1.5966049432754517
---
header: 
  seq: 1856
  stamp: 
    secs: 1682526358
    nsecs: 741437212
  frame_id: "world_vive"
twist: 
  linear: 
    x: -0.14002728462219238
    y: -0.17240729928016663
    z: 0.01585695706307888
  angular: 
    x: 1.2020881175994873
    y: -0.5692838430404663
    z: -1.686236023902893
---
header: 
  seq: 1857
  stamp: 
    secs: 1682526358
    nsecs: 774788032
  frame_id: "world_vive"
twist: 
  linear: 
    x: -0.09928097575902939
    y: -0.1469576209783554
    z: 0.013621639460325241
  angular: 
    x: 0.5154213905334473
    y: -0.45795372128486633
    z: -1.060225248336792
---
header: 
  seq: 1858
  stamp: 
    secs: 1682526358
    nsecs: 808134070
  frame_id: "world_vive"
twist: 
  linear: 
    x: -0.0628039538860321
    y: -0.10557517409324646
    z: -0.02603813447058201
  angular: 
    x: 0.07699290663003922
    y: -0.13096396625041962
    z: -0.6005312204360962
---
header: 
  seq: 1859
  stamp: 
    secs: 1682526358
    nsecs: 841469219
  frame_id: "world_vive"
twist: 
  linear: 
    x: -0.020048433914780617
    y: -0.07959383726119995
    z: -0.0341503880918026
  angular: 
    x: -0.02371271140873432
    y: -0.23581324517726898
    z: -0.30873048305511475
---
header: 
  seq: 1860
  stamp: 
    secs: 1682526358
    nsecs: 874796594
  frame_id: "world_vive"
twist: 
  linear: 
    x: -0.001972750760614872
    y: -0.08115104585886002
    z: -0.03917481005191803
  angular: 
    x: 0.01093320082873106
    y: -0.23234966397285461
    z: 0.07447407394647598
---
header: 
  seq: 1861
  stamp: 
    secs: 1682526358
    nsecs: 908076318
  frame_id: "world_vive"
twist: 
  linear: 
    x: -0.004833382088690996
    y: -0.08446428179740906
    z: -0.03793996199965477
  angular: 
    x: 0.005670482292771339
    y: -0.13890844583511353
    z: 0.4205766022205353
---
header: 
  seq: 1862
  stamp: 
    secs: 1682526358
    nsecs: 941410307
  frame_id: "world_vive"
twist: 
  linear: 
    x: -0.010845644399523735
    y: -0.07500341534614563
    z: -0.03385111689567566
  angular: 
    x: 0.020712651312351227
    y: -0.18204526603221893
    z: 0.4870029389858246
---
header: 
  seq: 1863
  stamp: 
    secs: 1682526358
    nsecs: 974740936
  frame_id: "world_vive"
twist: 
  linear: 
    x: -0.019405679777264595
    y: -0.041569024324417114
    z: -0.032940540462732315
  angular: 
    x: 0.1419389694929123
    y: -0.2142721265554428
    z: 0.40697282552719116
---
header: 
  seq: 1864
  stamp: 
    secs: 1682526359
    nsecs:   8151619
  frame_id: "world_vive"
twist: 
  linear: 
    x: -0.025949470698833466
    y: -0.005751917604357004
    z: -0.047180887311697006
  angular: 
    x: 0.06636567413806915
    y: -0.2958123981952667
    z: 0.12012241780757904
---
header: 
  seq: 1865
  stamp: 
    secs: 1682526359
    nsecs:  41420878
  frame_id: "world_vive"
twist: 
  linear: 
    x: -0.028565378859639168
    y: 0.03310631588101387
    z: -0.05442097410559654
  angular: 
    x: -0.048135530203580856
    y: -0.3673247694969177
    z: 0.0708654522895813
---
header: 
  seq: 1866
  stamp: 
    secs: 1682526359
    nsecs:  74796971
  frame_id: "world_vive"
twist: 
  linear: 
    x: -0.038501352071762085
    y: 0.042939119040966034
    z: -0.09738155454397202
  angular: 
    x: 0.0940113514661789
    y: -0.09737695008516312
    z: -0.2059827446937561
---
header: 
  seq: 1867
  stamp: 
    secs: 1682526359
    nsecs: 108089429
  frame_id: "world_vive"
twist: 
  linear: 
    x: -0.0403803214430809
    y: 0.08508124947547913
    z: -0.09642215073108673
  angular: 
    x: -0.16798514127731323
    y: -0.24013164639472961
    z: -0.29900193214416504
---
header: 
  seq: 1868
  stamp: 
    secs: 1682526359
    nsecs: 141460176
  frame_id: "world_vive"
twist: 
  linear: 
    x: -0.028809303417801857
    y: 0.1129683256149292
    z: -0.09879757463932037
  angular: 
    x: -0.31843802332878113
    y: -0.11212829500436783
    z: -0.23216228187084198
---
header: 
  seq: 1869
  stamp: 
    secs: 1682526359
    nsecs: 174809610
  frame_id: "world_vive"
twist: 
  linear: 
    x: -0.017512846738100052
    y: 0.11992266029119492
    z: -0.08239971101284027
  angular: 
    x: -0.30868324637413025
    y: -0.17677393555641174
    z: -0.06440574675798416
---
header: 
  seq: 1870
  stamp: 
    secs: 1682526359
    nsecs: 208148916
  frame_id: "world_vive"
twist: 
  linear: 
    x: -0.032403767108917236
    y: 0.09876777976751328
    z: -0.07958775758743286
  angular: 
    x: -0.16672581434249878
    y: -0.13697189092636108
    z: -0.02385958470404148
---
header: 
  seq: 1871
  stamp: 
    secs: 1682526359
    nsecs: 241408670
  frame_id: "world_vive"
twist: 
  linear: 
    x: -0.046690426766872406
    y: 0.07447147369384766
    z: -0.05222572758793831
  angular: 
    x: -0.1848592907190323
    y: -0.4131760001182556
    z: 0.12585099041461945
---
header: 
  seq: 1872
  stamp: 
    secs: 1682526359
    nsecs: 274829312
  frame_id: "world_vive"
twist: 
  linear: 
    x: -0.07348858565092087
    y: 0.06067037582397461
    z: -0.05950278788805008
  angular: 
    x: -0.33230480551719666
    y: -0.30411672592163086
    z: 0.2365839183330536
---
header: 
  seq: 1873
  stamp: 
    secs: 1682526359
    nsecs: 308146768
  frame_id: "world_vive"
twist: 
  linear: 
    x: -0.09249968826770782
    y: 0.05411341413855553
    z: -0.05693535506725311
  angular: 
    x: -0.45872464776039124
    y: -0.495907723903656
    z: 0.13688337802886963
---
header: 
  seq: 1874
  stamp: 
    secs: 1682526359
    nsecs: 341442218
  frame_id: "world_vive"
twist: 
  linear: 
    x: -0.09422656893730164
    y: 0.047173116356134415
    z: -0.06922528892755508
  angular: 
    x: -0.4119422435760498
    y: -0.4808664321899414
    z: 0.15132920444011688
---
header: 
  seq: 1875
  stamp: 
    secs: 1682526359
    nsecs: 374822217
  frame_id: "world_vive"
twist: 
  linear: 
    x: -0.0812615379691124
    y: 0.04781213402748108
    z: -0.06371309608221054
  angular: 
    x: -0.2768552005290985
    y: -0.44498714804649353
    z: 0.2578124403953552
---
header: 
  seq: 1876
  stamp: 
    secs: 1682526359
    nsecs: 408144469
  frame_id: "world_vive"
twist: 
  linear: 
    x: -0.07244504243135452
    y: 0.04757486656308174
    z: -0.06409826874732971
  angular: 
    x: -0.13523006439208984
    y: -0.2785285711288452
    z: 0.23182271420955658
---
header: 
  seq: 1877
  stamp: 
    secs: 1682526359
    nsecs: 441438237
  frame_id: "world_vive"
twist: 
  linear: 
    x: -0.06888004392385483
    y: 0.032510049641132355
    z: -0.07259277999401093
  angular: 
    x: -0.0517456978559494
    y: -0.13688574731349945
    z: 0.21206673979759216
---
header: 
  seq: 1878
  stamp: 
    secs: 1682526359
    nsecs: 474810234
  frame_id: "world_vive"
twist: 
  linear: 
    x: -0.08117605000734329
    y: 0.011296351440250874
    z: -0.08612806349992752
  angular: 
    x: 0.032096222043037415
    y: -0.12730978429317474
    z: 0.11015046387910843
---
header: 
  seq: 1879
  stamp: 
    secs: 1682526359
    nsecs: 508141211
  frame_id: "world_vive"
twist: 
  linear: 
    x: -0.05316267907619476
    y: 9.575549483997747e-05
    z: -0.09101946651935577
  angular: 
    x: 0.09321509301662445
    y: 0.057776011526584625
    z: 0.34881535172462463
---
header: 
  seq: 1880
  stamp: 
    secs: 1682526359
    nsecs: 541434056
  frame_id: "world_vive"
twist: 
  linear: 
    x: -0.034014441072940826
    y: -0.016068167984485626
    z: -0.08699289709329605
  angular: 
    x: 0.3133043944835663
    y: 0.07432982325553894
    z: 0.39192646741867065
---
header: 
  seq: 1881
  stamp: 
    secs: 1682526359
    nsecs: 574738975
  frame_id: "world_vive"
twist: 
  linear: 
    x: -0.02527027390897274
    y: -0.023398039862513542
    z: -0.0876428410410881
  angular: 
    x: 0.5320920944213867
    y: 0.09700354188680649
    z: 0.6531147360801697
---
header: 
  seq: 1882
  stamp: 
    secs: 1682526359
    nsecs: 608144802
  frame_id: "world_vive"
twist: 
  linear: 
    x: -0.02228321135044098
    y: -0.027600400149822235
    z: -0.07860618829727173
  angular: 
    x: 0.6697553396224976
    y: 0.07630075514316559
    z: 0.8471078276634216
---
header: 
  seq: 1883
  stamp: 
    secs: 1682526359
    nsecs: 641433023
  frame_id: "world_vive"
twist: 
  linear: 
    x: -0.022706864401698112
    y: -0.031278520822525024
    z: -0.06604553759098053
  angular: 
    x: 0.7553269267082214
    y: 0.09494168311357498
    z: 0.9866869449615479
---
header: 
  seq: 1884
  stamp: 
    secs: 1682526359
    nsecs: 674746069
  frame_id: "world_vive"
twist: 
  linear: 
    x: -0.03464331105351448
    y: -0.011465857736766338
    z: -0.04765608161687851
  angular: 
    x: 0.6886007785797119
    y: 0.014530331827700138
    z: 1.3529891967773438
---
header: 
  seq: 1885
  stamp: 
    secs: 1682526359
    nsecs: 708142148
  frame_id: "world_vive"
twist: 
  linear: 
    x: -0.05545787140727043
    y: 0.006044232286512852
    z: -0.04327848181128502
  angular: 
    x: 0.5055536031723022
    y: -0.06936764717102051
    z: 1.747690200805664
---
header: 
  seq: 1886
  stamp: 
    secs: 1682526359
    nsecs: 741438588
  frame_id: "world_vive"
twist: 
  linear: 
    x: -0.07102841883897781
    y: 0.002747077727690339
    z: -0.033253014087677
  angular: 
    x: 0.5444755554199219
    y: -0.24179919064044952
    z: 2.0354440212249756
---
header: 
  seq: 1887
  stamp: 
    secs: 1682526359
    nsecs: 774810694
  frame_id: "world_vive"
twist: 
  linear: 
    x: -0.07834235578775406
    y: 0.011069110594689846
    z: -0.019796904176473618
  angular: 
    x: 0.6065975427627563
    y: -0.2598719298839569
    z: 2.646916627883911
---
header: 
  seq: 1888
  stamp: 
    secs: 1682526359
    nsecs: 808087364
  frame_id: "world_vive"
twist: 
  linear: 
    x: -0.05654805526137352
    y: -0.05873171612620354
    z: -0.012613349594175816
  angular: 
    x: 0.38886451721191406
    y: -0.06708567589521408
    z: -0.13071124255657196
---
header: 
  seq: 1889
  stamp: 
    secs: 1682526359
    nsecs: 841429400
  frame_id: "world_vive"
twist: 
  linear: 
    x: -0.008166964165866375
    y: 0.01587733067572117
    z: 0.013128665275871754
  angular: 
    x: -0.05959244444966316
    y: 0.00926775112748146
    z: -0.09327232092618942
---
header: 
  seq: 1890
  stamp: 
    secs: 1682526359
    nsecs: 874809048
  frame_id: "world_vive"
twist: 
  linear: 
    x: -0.025196032598614693
    y: 0.03283613175153732
    z: 0.009657438844442368
  angular: 
    x: -0.11154936254024506
    y: 0.1075032502412796
    z: -0.48326554894447327
---
header: 
  seq: 1891
  stamp: 
    secs: 1682526359
    nsecs: 908144593
  frame_id: "world_vive"
twist: 
  linear: 
    x: -0.03225424885749817
    y: 0.05862930044531822
    z: 0.022698145359754562
  angular: 
    x: -0.19339317083358765
    y: 0.17133353650569916
    z: -0.7207472920417786
---
header: 
  seq: 1892
  stamp: 
    secs: 1682526359
    nsecs: 941432109
  frame_id: "world_vive"
twist: 
  linear: 
    x: -0.04532373324036598
    y: 0.07502096891403198
    z: 0.023064380511641502
  angular: 
    x: -0.2936868369579315
    y: 0.18839901685714722
    z: -0.7513309121131897
---
header: 
  seq: 1893
  stamp: 
    secs: 1682526359
    nsecs: 974778950
  frame_id: "world_vive"
twist: 
  linear: 
    x: -0.049278002232313156
    y: 0.0774761214852333
    z: 0.02071959897875786
  angular: 
    x: -0.3546096384525299
    y: 0.11706829816102982
    z: -0.6310118436813354
---
header: 
  seq: 1894
  stamp: 
    secs: 1682526360
    nsecs:   8124333
  frame_id: "world_vive"
twist: 
  linear: 
    x: -0.04915239289402962
    y: 0.06461125612258911
    z: 0.019697321578860283
  angular: 
    x: -0.2892429828643799
    y: 0.045765433460474014
    z: -0.4547475278377533
---
header: 
  seq: 1895
  stamp: 
    secs: 1682526360
    nsecs:  41411739
  frame_id: "world_vive"
twist: 
  linear: 
    x: -0.04257473722100258
    y: 0.04202510043978691
    z: 0.014040949754416943
  angular: 
    x: -0.16430281102657318
    y: 0.02111036330461502
    z: -0.23605044186115265
---
header: 
  seq: 1896
  stamp: 
    secs: 1682526360
    nsecs:  74748952
  frame_id: "world_vive"
twist: 
  linear: 
    x: -0.03594841808080673
    y: 0.01613377034664154
    z: 0.014225911349058151
  angular: 
    x: -0.02598319761455059
    y: -0.03591015189886093
    z: 0.030950695276260376
---
header: 
  seq: 1897
  stamp: 
    secs: 1682526360
    nsecs: 108105928
  frame_id: "world_vive"
twist: 
  linear: 
    x: -0.03015018440783024
    y: 0.0007278280099853873
    z: 0.003520921105518937
  angular: 
    x: 0.01309542078524828
    y: -0.025422370061278343
    z: 0.1219395101070404
---
header: 
  seq: 1898
  stamp: 
    secs: 1682526360
    nsecs: 141459345
  frame_id: "world_vive"
twist: 
  linear: 
    x: -0.019491326063871384
    y: -0.0056236437521874905
    z: -7.9088204074651e-05
