header: 
  seq: 11770
  stamp: 
    secs: 1682524372
    nsecs: 515976667
  frame_id: "world_vive"
twist: 
  linear: 
    x: 0.00017908615700434893
    y: 0.0006643965607509017
    z: -9.352793858852237e-05
  angular: 
    x: -0.001218633376993239
    y: -0.00021170791296754032
    z: -0.004679720848798752
---
header: 
  seq: 11771
  stamp: 
    secs: 1682524372
    nsecs: 549319526
  frame_id: "world_vive"
twist: 
  linear: 
    x: 0.00013242731802165508
    y: -0.00014021690003573895
    z: 0.0002949823683593422
  angular: 
    x: 0.0017364183440804482
    y: 0.003325504483655095
    z: 0.0017551229102537036
---
header: 
  seq: 11772
  stamp: 
    secs: 1682524372
    nsecs: 582605935
  frame_id: "world_vive"
twist: 
  linear: 
    x: -0.00011920031829504296
    y: -0.0004296166589483619
    z: -0.00016852191765792668
  angular: 
    x: 0.0024436311796307564
    y: -0.004218278918415308
    z: 0.001034481800161302
---
header: 
  seq: 11773
  stamp: 
    secs: 1682524372
    nsecs: 616011338
  frame_id: "world_vive"
twist: 
  linear: 
    x: -0.0001528812717879191
    y: 0.0002959662233479321
    z: 0.00018744771659839898
  angular: 
    x: -0.003571236040443182
    y: -0.00030956827686168253
    z: -0.0026574053335934877
---
header: 
  seq: 11774
  stamp: 
    secs: 1682524372
    nsecs: 649293615
  frame_id: "world_vive"
twist: 
  linear: 
    x: -8.557339606340975e-05
    y: 0.0006139401812106371
    z: 0.0007206561276689172
  angular: 
    x: -0.0009919099975377321
    y: 0.002577336272224784
    z: -0.0016548713902011514
---
header: 
  seq: 11775
  stamp: 
    secs: 1682524372
    nsecs: 682603009
  frame_id: "world_vive"
twist: 
  linear: 
    x: 0.00034166459226980805
    y: -1.6127894923556596e-05
    z: 0.0001687598996795714
  angular: 
    x: -7.371609626716236e-06
    y: -0.0012571768602356315
    z: -0.0008203046163544059
---
header: 
  seq: 11776
  stamp: 
    secs: 1682524372
    nsecs: 715999265
  frame_id: "world_vive"
twist: 
  linear: 
    x: 0.00020109584147576243
    y: -0.0003632735169958323
    z: 0.00013176324137020856
  angular: 
    x: 0.0008163913153111935
    y: 0.0008455098723061383
    z: -0.00010422081686556339
---
header: 
  seq: 11777
  stamp: 
    secs: 1682524372
    nsecs: 749370444
  frame_id: "world_vive"
twist: 
  linear: 
    x: -3.090090467594564e-05
    y: -0.0008247639634646475
    z: -0.00016621430404484272
  angular: 
    x: 0.00030578579753637314
    y: -0.0014772991416975856
    z: 0.004372863564640284
---
header: 
  seq: 11778
  stamp: 
    secs: 1682524372
    nsecs: 782596414
  frame_id: "world_vive"
twist: 
  linear: 
    x: -0.0007556778145954013
    y: -0.0006661890656687319
    z: 0.0001850140979513526
  angular: 
    x: -0.002188452985137701
    y: -0.002005149144679308
    z: 0.00018237008771393448
---
header: 
  seq: 11779
  stamp: 
    secs: 1682524372
    nsecs: 815942988
  frame_id: "world_vive"
twist: 
  linear: 
    x: -0.0010744861792773008
    y: -0.0006790373008698225
    z: 0.00036326784174889326
  angular: 
    x: 0.0005116743850521743
    y: 0.004799536895006895
    z: 0.002120897639542818
---
header: 
  seq: 11780
  stamp: 
    secs: 1682524372
    nsecs: 849343061
  frame_id: "world_vive"
twist: 
  linear: 
    x: -0.0011716251028701663
    y: -0.0005812347517348826
    z: -0.0002983110607601702
  angular: 
    x: 0.0009253532043658197
    y: 0.0009658801718614995
    z: -0.0014642346650362015
---
header: 
  seq: 11781
  stamp: 
    secs: 1682524372
    nsecs: 882615524
  frame_id: "world_vive"
twist: 
  linear: 
    x: -0.0006216972833499312
    y: -0.0009185001254081726
    z: -3.585728336474858e-05
  angular: 
    x: -0.002566408133134246
    y: 0.004703538026660681
    z: 0.00020276231225579977
---
header: 
  seq: 11782
  stamp: 
    secs: 1682524372
    nsecs: 915953554
  frame_id: "world_vive"
twist: 
  linear: 
    x: -0.00048561085714027286
    y: -0.0005681957700289786
    z: -0.0003724069392774254
  angular: 
    x: -0.0008544808370061219
    y: -0.0003626336110755801
    z: -0.0014517204836010933
---
header: 
  seq: 11783
  stamp: 
    secs: 1682524372
    nsecs: 949265979
  frame_id: "world_vive"
twist: 
  linear: 
    x: -0.0004414870636537671
    y: 0.0002660948084667325
    z: 0.0002592308446764946
  angular: 
    x: 0.0017743115313351154
    y: 0.0015110241947695613
    z: -0.0026462282985448837
---
header: 
  seq: 11784
  stamp: 
    secs: 1682524372
    nsecs: 982609885
  frame_id: "world_vive"
twist: 
  linear: 
    x: -0.00018671814177650958
    y: 6.979516911087558e-05
    z: 4.223568976158276e-05
  angular: 
    x: 0.00018354144413024187
    y: 0.0010213785571977496
    z: 0.0024705808609724045
---
header: 
  seq: 11785
  stamp: 
    secs: 1682524373
    nsecs:  15964315
  frame_id: "world_vive"
twist: 
  linear: 
    x: -0.00034088196116499603
    y: 8.200836600735784e-05
    z: -0.0002917311794590205
  angular: 
    x: -0.0031527914106845856
    y: 0.00028467035735957325
    z: -1.2827668797399383e-05
---
header: 
  seq: 11786
  stamp: 
    secs: 1682524373
    nsecs:  49302304
  frame_id: "world_vive"
twist: 
  linear: 
    x: 8.884236740414053e-05
    y: 0.0001454617449780926
    z: -0.00010800713062053546
  angular: 
    x: 0.0004008985124528408
    y: -0.002543444512411952
    z: 0.0019071131246164441
---
header: 
  seq: 11787
  stamp: 
    secs: 1682524373
    nsecs:  82606634
  frame_id: "world_vive"
twist: 
  linear: 
    x: -7.200058462331071e-05
    y: 0.0006104772910475731
    z: 0.00018832687055692077
  angular: 
    x: -0.00011434058978920802
    y: -0.0002546885225456208
    z: -0.001204293454065919
---
header: 
  seq: 11788
  stamp: 
    secs: 1682524373
    nsecs: 115963003
  frame_id: "world_vive"
twist: 
  linear: 
    x: 0.00027490296633914113
    y: 0.0003769899776671082
    z: 0.000515627907589078
  angular: 
    x: -0.001113269361667335
    y: 0.0008423759136348963
    z: 0.00036175979766994715
---
header: 
  seq: 11789
  stamp: 
    secs: 1682524373
    nsecs: 149273493
  frame_id: "world_vive"
twist: 
  linear: 
    x: -0.00014106834714766592
    y: 7.412899867631495e-05
    z: -0.00011518537939991802
  angular: 
    x: 0.0010160282254219055
    y: -0.00036598549922928214
    z: 0.0014399078208953142
---
header: 
  seq: 11790
  stamp: 
    secs: 1682524373
    nsecs: 182606002
  frame_id: "world_vive"
twist: 
  linear: 
    x: -0.0003266764688305557
    y: -0.00036007160088047385
    z: -2.8357562769087963e-05
  angular: 
    x: 0.0013666169252246618
    y: -0.00025291298516094685
    z: 0.002120588207617402
---
header: 
  seq: 11791
  stamp: 
    secs: 1682524373
    nsecs: 215973995
  frame_id: "world_vive"
twist: 
  linear: 
    x: 0.000134500878630206
    y: -0.00032656604889780283
    z: -0.00018338143127039075
  angular: 
    x: 0.0003053632681258023
    y: -0.00272123864851892
    z: -0.0020354697480797768
---
header: 
  seq: 11792
  stamp: 
    secs: 1682524373
    nsecs: 249294884
  frame_id: "world_vive"
twist: 
  linear: 
    x: 0.0001893126463983208
    y: -8.529455226380378e-05
    z: -5.1949380576843396e-05
  angular: 
    x: -0.0017941570840775967
    y: -0.0016033696010708809
    z: 0.0011460138484835625
---
header: 
  seq: 11793
  stamp: 
    secs: 1682524373
    nsecs: 282609673
  frame_id: "world_vive"
twist: 
  linear: 
    x: -0.0005579626886174083
    y: -0.00027084010071121156
    z: -0.00018017026013694704
  angular: 
    x: 0.0011567597975954413
    y: 0.0021692123264074326
    z: -0.0003256431664340198
---
header: 
  seq: 11794
  stamp: 
    secs: 1682524373
    nsecs: 315955775
  frame_id: "world_vive"
twist: 
  linear: 
    x: -0.0006771082989871502
    y: -0.00011363673547748476
    z: -0.0007019286858849227
  angular: 
    x: -0.0004797270812559873
    y: -0.0026881408412009478
    z: -0.0031239029485732317
---
header: 
  seq: 11795
  stamp: 
    secs: 1682524373
    nsecs: 349291312
  frame_id: "world_vive"
twist: 
  linear: 
    x: -0.00010036137973656878
    y: -0.00046739415847696364
    z: 0.00036687508691102266
  angular: 
    x: 0.00018734062905423343
    y: 0.0013857869198545814
    z: -0.001187866204418242
---
header: 
  seq: 11796
  stamp: 
    secs: 1682524373
    nsecs: 382611255
  frame_id: "world_vive"
twist: 
  linear: 
    x: -1.5190785234153736e-05
    y: -0.0004463890800252557
    z: 0.0009501510648988187
  angular: 
    x: 0.0010327871423214674
    y: 0.003295019268989563
    z: 0.00038911719457246363
---
header: 
  seq: 11797
  stamp: 
    secs: 1682524373
    nsecs: 415968773
  frame_id: "world_vive"
twist: 
  linear: 
    x: -0.0005467194714583457
    y: -0.00010490855493117124
    z: 0.001029377686791122
  angular: 
    x: -0.0008134512463584542
    y: 0.0012014246312901378
    z: -0.0015142392367124557
---
header: 
  seq: 11798
  stamp: 
    secs: 1682524373
    nsecs: 449235676
  frame_id: "world_vive"
twist: 
  linear: 
    x: -0.0003443407767917961
    y: -0.0005797769990749657
    z: 8.00965863163583e-05
  angular: 
    x: -0.0003732137265615165
    y: 0.005318572279065847
    z: 0.0009457756532356143
---
header: 
  seq: 11799
  stamp: 
    secs: 1682524373
    nsecs: 482596246
  frame_id: "world_vive"
twist: 
  linear: 
    x: -0.0001278679264942184
    y: -0.0006006625480949879
    z: -0.0003429482749197632
  angular: 
    x: 0.0012734170304611325
    y: -0.0021303538233041763
    z: 0.0025030099786818027
---
header: 
  seq: 11800
  stamp: 
    secs: 1682524373
    nsecs: 516002867
  frame_id: "world_vive"
twist: 
  linear: 
    x: -0.00033316705957986414
    y: -0.0004117479838896543
    z: -0.0005578810232691467
  angular: 
    x: 0.0018602594500407577
    y: -0.005221482831984758
    z: 0.0006413535447791219
---
header: 
  seq: 11801
  stamp: 
    secs: 1682524373
    nsecs: 549345141
  frame_id: "world_vive"
twist: 
  linear: 
    x: -0.0003943114134017378
    y: -0.00019040420011151582
    z: -0.00014093054051045328
  angular: 
    x: 0.0005635499837808311
    y: -0.0013247871538624167
    z: -0.001739094965159893
---
header: 
  seq: 11802
  stamp: 
    secs: 1682524373
    nsecs: 582574430
  frame_id: "world_vive"
twist: 
  linear: 
    x: -3.945444404962473e-06
    y: 7.369527156697586e-05
    z: 0.00046513660345226526
  angular: 
    x: 0.0016908878460526466
    y: 0.0016535796457901597
    z: 0.0018521304009482265
---
header: 
  seq: 11803
  stamp: 
    secs: 1682524373
    nsecs: 615981084
  frame_id: "world_vive"
twist: 
  linear: 
    x: 0.00035144572029821575
    y: 5.810693255625665e-05
    z: 0.00010635356738930568
  angular: 
    x: -0.002152681816369295
    y: -0.0002797921479213983
    z: -0.0010211034677922726
---
header: 
  seq: 11804
  stamp: 
    secs: 1682524373
    nsecs: 649324501
  frame_id: "world_vive"
twist: 
  linear: 
    x: 0.00046165395178832114
    y: -0.0005417972570285201
    z: -8.02180657046847e-05
  angular: 
    x: -0.0011097494279965758
    y: -0.0015584835782647133
    z: 0.0008107981993816793
---
header: 
  seq: 11805
  stamp: 
    secs: 1682524373
    nsecs: 682650007
  frame_id: "world_vive"
twist: 
  linear: 
    x: -0.00023198322742246091
    y: -0.0013660305412486196
    z: -0.00016572522872593254
  angular: 
    x: 0.003399333218112588
    y: 0.004008296877145767
    z: 0.003994571976363659
---
header: 
  seq: 11806
  stamp: 
    secs: 1682524373
    nsecs: 715977176
  frame_id: "world_vive"
twist: 
  linear: 
    x: -4.010414704680443e-05
    y: -0.000688691099639982
    z: -0.00015338150842580944
  angular: 
    x: 0.0013601139653474092
    y: -0.0017269732197746634
    z: 0.001111055025830865
---
header: 
  seq: 11807
  stamp: 
    secs: 1682524373
    nsecs: 749332847
  frame_id: "world_vive"
twist: 
  linear: 
    x: -0.0006579503533430398
    y: -0.00018923377501778305
    z: -0.0004340158775448799
  angular: 
    x: 0.0007219472317956388
    y: 0.001639284542761743
    z: 0.0004134337941650301
---
header: 
  seq: 11808
  stamp: 
    secs: 1682524373
    nsecs: 782638544
  frame_id: "world_vive"
twist: 
  linear: 
    x: 1.3875698641641065e-05
    y: -0.0008018958615139127
    z: -0.0005143808084540069
  angular: 
    x: -0.0005005858256481588
    y: -0.0004592997138388455
    z: 0.0026272593531757593
---
header: 
  seq: 11809
  stamp: 
    secs: 1682524373
    nsecs: 815931839
  frame_id: "world_vive"
twist: 
  linear: 
    x: 3.799585101660341e-05
    y: -0.0006861425936222076
    z: -0.0007968182908371091
  angular: 
    x: 0.0007127522840164602
    y: 0.00044246125617064536
    z: -0.0006744720158167183
---
header: 
  seq: 11810
  stamp: 
    secs: 1682524373
    nsecs: 849308921
  frame_id: "world_vive"
twist: 
  linear: 
    x: -0.0004359400481916964
    y: -0.0003671280574053526
    z: -0.0003746320435311645
  angular: 
    x: -0.00031903304625302553
    y: 0.0017290739342570305
    z: -0.0025060370098799467
---
header: 
  seq: 11811
  stamp: 
    secs: 1682524373
    nsecs: 882650878
  frame_id: "world_vive"
twist: 
  linear: 
    x: -0.00040510238613933325
    y: 0.00017786493117455393
    z: -3.5474768083076924e-05
  angular: 
    x: 0.002197334775701165
    y: -0.0015861827414482832
    z: -0.0040100570768117905
---
header: 
  seq: 11812
  stamp: 
    secs: 1682524373
    nsecs: 915924979
  frame_id: "world_vive"
twist: 
  linear: 
    x: 0.0005615782574750483
    y: -0.00045732053695246577
    z: -6.262940587475896e-05
  angular: 
    x: 0.0011901740217581391
    y: -0.0007987667922861874
    z: -0.0004642311541829258
---
header: 
  seq: 11813
  stamp: 
    secs: 1682524373
    nsecs: 949319302
  frame_id: "world_vive"
twist: 
  linear: 
    x: 0.0006063726032152772
    y: -0.00024227194080594927
    z: -0.0005089964251965284
  angular: 
    x: 0.0007167293806560338
    y: -0.0004562095273286104
    z: 0.0007589919259771705
---
header: 
  seq: 11814
  stamp: 
    secs: 1682524373
    nsecs: 982601983
  frame_id: "world_vive"
twist: 
  linear: 
    x: 0.00023274969134945422
    y: -0.00024565350031480193
    z: 3.1741379643790424e-05
  angular: 
    x: -0.0004984132247045636
    y: 0.00016262444842141122
    z: 0.0005937090027146041
---
header: 
  seq: 11815
  stamp: 
    secs: 1682524374
    nsecs:  15921583
  frame_id: "world_vive"
twist: 
  linear: 
    x: 0.0009704815456643701
    y: 0.00047162838745862246
    z: -0.0001640786067582667
  angular: 
    x: 0.002589124720543623
    y: 0.0007648994214832783
    z: -0.0003583001671358943
---
header: 
  seq: 11816
  stamp: 
    secs: 1682524374
    nsecs:  49242010
  frame_id: "world_vive"
twist: 
  linear: 
    x: 0.0009109385428018868
    y: 0.0004931812291033566
    z: 0.00045662114280276
  angular: 
    x: -0.0013161590322852135
    y: 0.0013363283360376954
    z: -0.002571098506450653
---
header: 
  seq: 11817
  stamp: 
    secs: 1682524374
    nsecs:  82571221
  frame_id: "world_vive"
twist: 
  linear: 
    x: 0.00047233892837539315
    y: -9.482692257734016e-05
    z: 0.0005896817892789841
  angular: 
    x: -0.000854873564094305
    y: 0.00023723984486423433
    z: -0.003444258589297533
---
header: 
  seq: 11818
  stamp: 
    secs: 1682524374
    nsecs: 115926145
  frame_id: "world_vive"
twist: 
  linear: 
    x: 0.0006360446568578482
    y: -0.0008026089053601027
    z: 0.0006388371693901718
  angular: 
    x: 0.0009170170524157584
    y: 0.000465452263597399
    z: 0.001381594454869628
---
header: 
  seq: 11819
  stamp: 
    secs: 1682524374
    nsecs: 149314668
  frame_id: "world_vive"
twist: 
  linear: 
    x: 0.0008300953195430338
    y: -0.0010940460488200188
    z: 0.0003563540813047439
  angular: 
    x: 0.0008807456470094621
    y: -0.0010748568456619978
    z: 0.0023124238941818476
---
header: 
  seq: 11820
  stamp: 
    secs: 1682524374
    nsecs: 182594844
  frame_id: "world_vive"
twist: 
  linear: 
    x: 0.0014860985102131963
    y: -0.0011073419591411948
    z: 0.00040301846456713974
  angular: 
    x: -0.003062484785914421
    y: 0.0025614199694246054
    z: -0.0014971933560445905
---
header: 
  seq: 11821
  stamp: 
    secs: 1682524374
    nsecs: 215919348
  frame_id: "world_vive"
twist: 
  linear: 
    x: 0.0011714500142261386
    y: -0.0013443834614008665
    z: 0.00010729006316978484
  angular: 
    x: -0.0007890283595770597
    y: -0.0003863974125124514
    z: 0.000871660653501749
---
header: 
  seq: 11822
  stamp: 
    secs: 1682524374
    nsecs: 249335866
  frame_id: "world_vive"
twist: 
  linear: 
    x: 0.0006260477821342647
    y: -0.0008550428319722414
    z: 0.00047735832049511373
  angular: 
    x: -9.205267997458577e-05
    y: 0.004350718110799789
    z: 0.003943795803934336
---
header: 
  seq: 11823
  stamp: 
    secs: 1682524374
    nsecs: 282705692
  frame_id: "world_vive"
twist: 
  linear: 
    x: 0.0005748082767240703
    y: -0.0004357498837634921
    z: 0.0001898253831313923
  angular: 
    x: -0.0026051709428429604
    y: 0.0015019051497802138
    z: 0.0009965761564671993
---
header: 
  seq: 11824
  stamp: 
    secs: 1682524374
    nsecs: 315932317
  frame_id: "world_vive"
twist: 
  linear: 
    x: 6.902803579578176e-05
    y: 0.0002023360866587609
    z: -1.743049688229803e-05
  angular: 
    x: -0.0024106076452881098
    y: 0.0011079174000769854
    z: -0.0028445483185350895
---
header: 
  seq: 11825
  stamp: 
    secs: 1682524374
    nsecs: 349216726
  frame_id: "world_vive"
twist: 
  linear: 
    x: -5.4956246458459646e-05
    y: 0.00011675657151499763
    z: -0.00024114930420182645
  angular: 
    x: -0.001695932587608695
    y: 0.0002096696844091639
    z: 0.0005544350715354085
---
header: 
  seq: 11826
  stamp: 
    secs: 1682524374
    nsecs: 382632950
  frame_id: "world_vive"
twist: 
  linear: 
    x: -5.259749013930559e-05
    y: -5.0369093514746055e-05
    z: 0.00017951383779291064
  angular: 
    x: -0.00016528410196769983
    y: 0.0015887788031250238
    z: 0.001271366490982473
---
header: 
  seq: 11827
  stamp: 
    secs: 1682524374
    nsecs: 415869524
  frame_id: "world_vive"
twist: 
  linear: 
    x: -0.0005394993349909782
    y: 0.00022945627279113978
    z: -0.00019052426796406507
  angular: 
    x: 0.0011607781052589417
    y: 0.0018056618282571435
    z: -0.0011112887877970934
---
header: 
  seq: 11828
  stamp: 
    secs: 1682524374
    nsecs: 449254600
  frame_id: "world_vive"
twist: 
  linear: 
    x: -0.0011088552419096231
    y: -0.0001473628362873569
    z: -0.00044836330926045775
  angular: 
    x: 0.0018787711160257459
    y: 0.002194751286879182
    z: 0.0016524868551641703
---
header: 
  seq: 11829
  stamp: 
    secs: 1682524374
    nsecs: 482593117
  frame_id: "world_vive"
twist: 
  linear: 
    x: -0.00087422487558797
    y: -0.0001447715621907264
    z: -0.00025117528275586665
  angular: 
    x: -0.002130577340722084
    y: 0.0015886572655290365
    z: -0.001371867721900344
---
header: 
  seq: 11830
  stamp: 
    secs: 1682524374
    nsecs: 515915914
  frame_id: "world_vive"
twist: 
  linear: 
    x: -0.0010671820491552353
    y: -0.000777936598751694
    z: -0.0007434556027874351
  angular: 
    x: 0.0032181874848902225
    y: -0.001767710316926241
    z: 0.0031732949428260326
---
header: 
  seq: 11831
  stamp: 
    secs: 1682524374
    nsecs: 549267712
  frame_id: "world_vive"
twist: 
  linear: 
    x: -0.000994060537777841
    y: -0.0006924712797626853
    z: -0.0008631550008431077
  angular: 
    x: -0.002352688228711486
    y: -0.003138297935947776
    z: 0.00021236255997791886
---
header: 
  seq: 11832
  stamp: 
    secs: 1682524374
    nsecs: 582652215
  frame_id: "world_vive"
twist: 
  linear: 
    x: -0.0010646380251273513
    y: -0.0002827151620294899
    z: -0.0002892208576668054
  angular: 
    x: -0.0015724635450169444
    y: 0.005968630779534578
    z: -0.0017498781671747565
---
header: 
  seq: 11833
  stamp: 
    secs: 1682524374
    nsecs: 615986270
  frame_id: "world_vive"
twist: 
  linear: 
    x: -0.0007969741709530354
    y: -0.0010030458215624094
    z: -0.00025459431344643235
  angular: 
    x: 0.0007964493124745786
    y: 0.0006961298640817404
    z: 0.0016003609634935856
---
header: 
  seq: 11834
  stamp: 
    secs: 1682524374
    nsecs: 649297167
  frame_id: "world_vive"
twist: 
  linear: 
    x: -0.0004328815557528287
    y: -0.0013464571675285697
    z: 2.7662186766974628e-05
  angular: 
    x: -0.0011061696568503976
    y: -9.918470459524542e-05
    z: 0.001830844790674746
---
header: 
  seq: 11835
  stamp: 
    secs: 1682524374
    nsecs: 682655439
  frame_id: "world_vive"
twist: 
  linear: 
    x: 0.00012757728109136224
    y: -0.000884300738107413
    z: 0.00033497894764877856
  angular: 
    x: -0.0007729889475740492
    y: -0.0026404596865177155
    z: 0.00038833156577311456
---
header: 
  seq: 11836
  stamp: 
    secs: 1682524374
    nsecs: 715990994
  frame_id: "world_vive"
twist: 
  linear: 
    x: -0.0003632865264080465
    y: -0.0007940419600345194
    z: 0.00015854285447858274
  angular: 
    x: 0.0004741418524645269
    y: -0.003780221100896597
    z: -0.0019299814011901617
---
header: 
  seq: 11837
  stamp: 
    secs: 1682524374
    nsecs: 749302862
  frame_id: "world_vive"
twist: 
  linear: 
    x: -0.0007117291097529233
    y: -0.00026827878900803626
    z: 0.0002190862433053553
  angular: 
    x: -0.00160102522931993
    y: -0.002151845023036003
    z: 0.0009258431964553893
---
header: 
  seq: 11838
  stamp: 
    secs: 1682524374
    nsecs: 782628048
  frame_id: "world_vive"
twist: 
  linear: 
    x: -0.0007338047726079822
    y: -4.084393731318414e-05
    z: 0.00030517196864821017
  angular: 
    x: -0.0009817290119826794
    y: 0.001916161854751408
    z: 0.0003283488913439214
---
header: 
  seq: 11839
  stamp: 
    secs: 1682524374
    nsecs: 815924587
  frame_id: "world_vive"
twist: 
  linear: 
    x: -7.160061068134382e-05
    y: -9.479549044044688e-05
    z: -0.00041027399129234254
  angular: 
    x: 0.0005996041581965983
    y: -0.00023146382591221482
    z: 0.0009833681397140026
---
header: 
  seq: 11840
  stamp: 
    secs: 1682524374
    nsecs: 849310713
  frame_id: "world_vive"
twist: 
  linear: 
    x: -0.0004914490855298936
    y: -0.00011763164366129786
    z: -0.0004533072642516345
  angular: 
    x: -0.001280675525777042
    y: 0.0012016145046800375
    z: 0.0016789617948234081
---
header: 
  seq: 11841
  stamp: 
    secs: 1682524374
    nsecs: 882655695
  frame_id: "world_vive"
twist: 
  linear: 
    x: -0.0006180499331094325
    y: -0.00035663871676661074
    z: -0.00027728447457775474
  angular: 
    x: -0.002253825543448329
    y: 0.0013365529011934996
    z: -0.0006292921025305986
---
header: 
  seq: 11842
  stamp: 
    secs: 1682524374
    nsecs: 915957110
  frame_id: "world_vive"
twist: 
  linear: 
    x: -0.00025710725458338857
    y: -0.0007666451274417341
    z: 1.2207288818899542e-05
  angular: 
    x: -0.0017200307920575142
    y: 0.0012336152140051126
    z: 0.0003945835051126778
---
header: 
  seq: 11843
  stamp: 
    secs: 1682524374
    nsecs: 949289634
  frame_id: "world_vive"
twist: 
  linear: 
    x: -0.000254253827733919
    y: -0.0006023714086040854
    z: -0.00026867390261031687
  angular: 
    x: -0.0005136243999004364
    y: -0.0012644609669223428
    z: 0.0006695957854390144
---
header: 
  seq: 11844
  stamp: 
    secs: 1682524374
    nsecs: 982580896
  frame_id: "world_vive"
twist: 
  linear: 
    x: -0.0001140216481871903
    y: -0.0008762712241150439
    z: -0.00020732796110678464
  angular: 
    x: 0.001266186824068427
    y: -0.0009508038056083024
    z: 0.001230874564498663
---
header: 
  seq: 11845
  stamp: 
    secs: 1682524375
    nsecs:  15946957
  frame_id: "world_vive"
twist: 
  linear: 
    x: -0.0006054138648323715
    y: -0.0010084359673783183
    z: -0.0001075709515134804
  angular: 
    x: -0.00038643949665129185
    y: -0.0013442744966596365
    z: -0.00042688060784712434
---
header: 
  seq: 11846
  stamp: 
    secs: 1682524375
    nsecs:  49290955
  frame_id: "world_vive"
twist: 
  linear: 
    x: -0.00021716974151786417
    y: -0.000266315444605425
    z: -5.84041345064179e-06
  angular: 
    x: -0.0032228385098278522
    y: 0.000575547048356384
    z: 0.0010359811130911112
---
header: 
  seq: 11847
  stamp: 
    secs: 1682524375
    nsecs:  82673450
  frame_id: "world_vive"
twist: 
  linear: 
    x: -0.0004078377678524703
    y: -4.138980511925183e-05
    z: -7.738977728877217e-05
  angular: 
    x: 0.0027490530628710985
    y: -0.00203202897682786
    z: -0.0010155937634408474
---
header: 
  seq: 11848
  stamp: 
    secs: 1682524375
    nsecs: 115922736
  frame_id: "world_vive"
twist: 
  linear: 
    x: 4.152491965214722e-05
    y: 3.1670402677264065e-05
    z: 0.0008006534771993756
  angular: 
    x: 0.0015865564346313477
    y: 0.0009167841635644436
    z: 9.094447159441188e-05
---
header: 
  seq: 11849
  stamp: 
    secs: 1682524375
    nsecs: 149364632
  frame_id: "world_vive"
twist: 
  linear: 
    x: 5.512734787771478e-05
    y: 2.6428837372804992e-05
    z: 0.00019357896235305816
  angular: 
    x: -0.0005511463969014585
    y: 0.0007527815760113299
    z: -0.0011655398411676288
---
header: 
  seq: 11850
  stamp: 
    secs: 1682524375
    nsecs: 182664168
  frame_id: "world_vive"
twist: 
  linear: 
    x: 4.323871689848602e-05
    y: -1.6901338312891312e-05
    z: 0.0003206469409633428
  angular: 
    x: -0.00011143292795168236
    y: 0.0028884506318718195
    z: -0.001981106586754322
---
header: 
  seq: 11851
  stamp: 
    secs: 1682524375
    nsecs: 215968438
  frame_id: "world_vive"
twist: 
  linear: 
    x: 0.0005471939803101122
    y: 0.0001668023905949667
    z: 3.886634294758551e-05
  angular: 
    x: 0.0011797650950029492
    y: -0.0020155864767730236
    z: 0.0009971787221729755
---
header: 
  seq: 11852
  stamp: 
    secs: 1682524375
    nsecs: 249256181
  frame_id: "world_vive"
twist: 
  linear: 
    x: 0.0012069258373230696
    y: 0.0006870149518363178
    z: 0.0006205757963471115
  angular: 
    x: 0.001494095311500132
    y: 0.0005672593833878636
    z: -0.00046711304457858205
---
header: 
  seq: 11853
  stamp: 
    secs: 1682524375
    nsecs: 282644222
  frame_id: "world_vive"
twist: 
  linear: 
    x: 0.0009756874642334878
    y: 0.0012257705675438046
    z: 0.0007928922423161566
  angular: 
    x: 0.0016314252279698849
    y: -0.0021272071171551943
    z: -0.0002693113056011498
---
header: 
  seq: 11854
  stamp: 
    secs: 1682524375
    nsecs: 315987672
  frame_id: "world_vive"
twist: 
  linear: 
    x: 0.0020245707128196955
    y: 0.0007889989647082984
    z: 0.0008266614750027657
  angular: 
    x: -0.0014756153104826808
    y: 0.0019010234391316772
    z: 0.0009687354904599488
---
header: 
  seq: 11855
  stamp: 
    secs: 1682524375
    nsecs: 349341891
  frame_id: "world_vive"
twist: 
  linear: 
    x: 0.0014496430521830916
    y: 0.00030431378399953246
    z: 0.0001870971464086324
  angular: 
    x: -0.001915745553560555
    y: -0.004598257597535849
    z: 0.0014922789996489882
---
header: 
  seq: 11856
  stamp: 
    secs: 1682524375
    nsecs: 382644059
  frame_id: "world_vive"
twist: 
  linear: 
    x: 0.0006150076515041292
    y: 0.00011178410932188854
    z: 0.00011098699178546667
  angular: 
    x: 0.005538681987673044
    y: -0.0012961720349267125
    z: -0.00039575673872604966
---
header: 
  seq: 11857
  stamp: 
    secs: 1682524375
    nsecs: 416022365
  frame_id: "world_vive"
twist: 
  linear: 
    x: 0.0006054508266970515
    y: 0.0004415845323819667
    z: 0.0009105144417844713
  angular: 
    x: -0.00015909479407127947
    y: 0.004272741265594959
    z: -0.0015439167618751526
---
header: 
  seq: 11858
  stamp: 
    secs: 1682524375
    nsecs: 449317023
  frame_id: "world_vive"
twist: 
  linear: 
    x: 0.0007150868768803775
    y: -9.067710197996348e-05
    z: 0.00046132842544466257
  angular: 
    x: -0.0026758923195302486
    y: -0.0038455731701105833
    z: -0.0007966684643179178
---
header: 
  seq: 11859
  stamp: 
    secs: 1682524375
    nsecs: 482607478
  frame_id: "world_vive"
twist: 
  linear: 
    x: 0.0005113022052682936
    y: 0.00015954626724123955
    z: 0.0008766159298829734
  angular: 
    x: 0.00013860063336323947
    y: 0.0016470985719934106
    z: 0.0015195508021861315
---
header: 
  seq: 11860
  stamp: 
    secs: 1682524375
    nsecs: 515950006
  frame_id: "world_vive"
twist: 
  linear: 
    x: 6.963511259527877e-05
    y: -8.041732507990673e-05
    z: 0.00022765016183257103
  angular: 
    x: 0.002914357464760542
    y: -0.001115868566557765
    z: 0.002350574592128396
---
header: 
  seq: 11861
  stamp: 
    secs: 1682524375
    nsecs: 549339312
  frame_id: "world_vive"
twist: 
  linear: 
    x: -0.00027446847525425255
    y: 9.460686851525679e-05
    z: 4.79520604130812e-05
  angular: 
    x: -0.0003546276711858809
    y: 0.0018068175995722413
    z: -0.003980084788054228
---
header: 
  seq: 11862
  stamp: 
    secs: 1682524375
    nsecs: 582642388
  frame_id: "world_vive"
twist: 
  linear: 
    x: 1.0416158147563692e-05
    y: 0.00026829587295651436
    z: 0.00025883325724862516
  angular: 
    x: -0.0024736421182751656
    y: 0.002328732516616583
    z: -0.0013561582891270518
---
header: 
  seq: 11863
  stamp: 
    secs: 1682524375
    nsecs: 615921031
  frame_id: "world_vive"
twist: 
  linear: 
    x: -0.00020302324264775962
    y: 0.0003038631402887404
    z: -0.00029632504447363317
  angular: 
    x: -4.074330354342237e-05
    y: 0.0009070587111636996
    z: -0.0001715240941848606
---
header: 
  seq: 11864
  stamp: 
    secs: 1682524375
    nsecs: 649406423
  frame_id: "world_vive"
twist: 
  linear: 
    x: 0.000178205082193017
    y: 0.00028947144164703786
    z: -0.0008994814124889672
  angular: 
    x: 0.002413668902590871
    y: -0.004037424921989441
    z: -0.0015925037441775203
---
header: 
  seq: 11865
  stamp: 
    secs: 1682524375
    nsecs: 682570814
  frame_id: "world_vive"
twist: 
  linear: 
    x: 0.0006272047176025808
    y: 0.00028870152891613543
    z: -0.00016963235975708812
  angular: 
    x: -0.001087843207642436
    y: -0.0007940123905427754
    z: -0.0021425229497253895
---
header: 
  seq: 11866
  stamp: 
    secs: 1682524375
    nsecs: 715892878
  frame_id: "world_vive"
twist: 
  linear: 
    x: 0.00010258748079650104
    y: 0.0008696885197423398
    z: -0.00028384331380948424
  angular: 
    x: -0.006020968779921532
    y: 0.0004616518272086978
    z: -0.0016329543432220817
---
header: 
  seq: 11867
  stamp: 
    secs: 1682524375
    nsecs: 749350202
  frame_id: "world_vive"
twist: 
  linear: 
    x: -0.0007906626560725272
    y: 0.0001399427419528365
    z: -0.0006605106173083186
  angular: 
    x: -0.0019691232591867447
    y: -0.0010643739951774478
    z: -0.001006569480523467
---
header: 
  seq: 11868
  stamp: 
    secs: 1682524375
    nsecs: 782645110
  frame_id: "world_vive"
twist: 
  linear: 
    x: -0.0008528967155143619
    y: 8.6308951722458e-05
    z: 0.00020510342437773943
  angular: 
    x: 0.004314377438277006
    y: -0.0001446711248718202
    z: 0.004458167124539614
---
header: 
  seq: 11869
  stamp: 
    secs: 1682524375
    nsecs: 815922973
  frame_id: "world_vive"
twist: 
  linear: 
    x: -0.0005240907776169479
    y: 0.0003883260069414973
    z: 9.87648090813309e-05
  angular: 
    x: 0.0041595930233597755
    y: -0.002857794752344489
    z: -0.0005151744117029011
---
header: 
  seq: 11870
  stamp: 
    secs: 1682524375
    nsecs: 849324972
  frame_id: "world_vive"
twist: 
  linear: 
    x: -0.0005009031156077981
    y: 0.0008423239924013615
    z: 0.00040797749534249306
  angular: 
    x: -0.002231854945421219
    y: 0.002126287668943405
    z: 0.0015286266570910811
---
header: 
  seq: 11871
  stamp: 
    secs: 1682524375
    nsecs: 882590444
  frame_id: "world_vive"
twist: 
  linear: 
    x: 0.00011698093294398859
    y: 3.4920241887448356e-05
    z: -0.00046511157415807247
  angular: 
    x: 0.000585209927521646
    y: 0.0008080626139417291
    z: 0.0005973980878479779
---
header: 
  seq: 11872
  stamp: 
    secs: 1682524375
    nsecs: 915911856
  frame_id: "world_vive"
twist: 
  linear: 
    x: -0.0004313094250392169
    y: -0.00016548309940844774
    z: -0.00025159059441648424
  angular: 
    x: 0.0008113675867207348
    y: -0.00018640863709151745
    z: 0.0012915574479848146
---
header: 
  seq: 11873
  stamp: 
    secs: 1682524375
    nsecs: 949307516
  frame_id: "world_vive"
twist: 
  linear: 
    x: -0.00024931866209954023
    y: 0.00039256730815395713
    z: -0.0002518732217140496
  angular: 
    x: 0.001544141792692244
    y: -0.0007272030343301594
    z: -0.00238013151101768
---
header: 
  seq: 11874
  stamp: 
    secs: 1682524375
    nsecs: 982607164
  frame_id: "world_vive"
twist: 
  linear: 
    x: 0.0005321558564901352
    y: -0.0003022636519744992
    z: 3.2939027732936665e-05
  angular: 
    x: -0.0029693988617509604
    y: -0.0009764540591277182
    z: 0.0036988696083426476
---
header: 
  seq: 11875
  stamp: 
    secs: 1682524376
    nsecs:  15954231
  frame_id: "world_vive"
twist: 
  linear: 
    x: -0.00042560562724247575
    y: 0.0005364406388252974
    z: -0.0002193854161305353
  angular: 
    x: -0.0025584741961210966
    y: -0.004643975291401148
    z: 0.0018105801427736878
---
header: 
  seq: 11876
  stamp: 
    secs: 1682524376
    nsecs:  49394476
  frame_id: "world_vive"
twist: 
  linear: 
    x: -0.00030896178213879466
    y: 0.0003852580557577312
    z: 0.00012170409900136292
  angular: 
    x: 0.000502183276694268
    y: 0.001408008043654263
    z: 0.0013790804659947753
---
header: 
  seq: 11877
  stamp: 
    secs: 1682524376
    nsecs:  82687949
  frame_id: "world_vive"
twist: 
  linear: 
    x: 0.00022894059657119215
    y: 0.00034094060538336635
    z: -0.00020226121705491096
  angular: 
    x: 0.0031626506242901087
    y: 0.001129010459408164
    z: -0.0022150028962641954
---
header: 
  seq: 11878
  stamp: 
    secs: 1682524376
    nsecs: 115857647
  frame_id: "world_vive"
twist: 
  linear: 
    x: -0.0001169735478470102
    y: -0.00019527098629623652
    z: -0.00014858007489237934
  angular: 
    x: -0.0004000458284281194
    y: 0.0007054570596665144
    z: 0.0011102930875495076
---
header: 
  seq: 11879
  stamp: 
    secs: 1682524376
    nsecs: 149190174
  frame_id: "world_vive"
twist: 
  linear: 
    x: 0.000741418800316751
    y: 0.00035053747706115246
    z: 0.0002922540588770062
  angular: 
    x: -0.005626576952636242
    y: 0.0008027036092244089
    z: -0.0012293551117181778
---
header: 
  seq: 11880
  stamp: 
    secs: 1682524376
    nsecs: 182596168
  frame_id: "world_vive"
twist: 
  linear: 
    x: 0.0005692846607416868
    y: 0.00030666825477965176
    z: 0.00022589832951780409
  angular: 
    x: 0.0002917733509093523
    y: -0.0032633147202432156
    z: -0.0015065351035445929
---
header: 
  seq: 11881
  stamp: 
    secs: 1682524376
    nsecs: 216013657
  frame_id: "world_vive"
twist: 
  linear: 
    x: -0.00016523162776138633
    y: 0.0006057331920601428
    z: -0.00014144541637506336
  angular: 
    x: 0.002222190611064434
    y: 0.0002698157331906259
    z: 0.001189802773296833
---
header: 
  seq: 11882
  stamp: 
    secs: 1682524376
    nsecs: 249362494
  frame_id: "world_vive"
twist: 
  linear: 
    x: 0.00034301841515116394
    y: 0.00034329626942053437
    z: -0.000376073265215382
  angular: 
    x: 0.0005387170822359622
    y: 0.0004492768202908337
    z: 4.739538417197764e-05
---
header: 
  seq: 11883
  stamp: 
    secs: 1682524376
    nsecs: 282590099
  frame_id: "world_vive"
twist: 
  linear: 
    x: 7.16684153303504e-05
    y: 0.0005120389396324754
    z: -0.00020979018881917
  angular: 
    x: 0.0013369855005294085
    y: 0.0006561278132721782
    z: -0.0016637189546599984
---
header: 
  seq: 11884
  stamp: 
    secs: 1682524376
    nsecs: 315914162
  frame_id: "world_vive"
twist: 
  linear: 
    x: 8.830277693050448e-06
    y: 0.0002867366711143404
    z: -0.000295369973173365
  angular: 
    x: 0.0021731825545430183
    y: -0.0028136111795902252
    z: 0.00022392849496100098
---
header: 
  seq: 11885
  stamp: 
    secs: 1682524376
    nsecs: 349361604
  frame_id: "world_vive"
twist: 
  linear: 
    x: 0.0004727751947939396
    y: 8.785707905190066e-05
    z: -0.0002639299491420388
  angular: 
    x: -0.0018908693455159664
    y: 0.0017855229089036584
    z: 0.0005537451943382621
---
header: 
  seq: 11886
  stamp: 
    secs: 1682524376
    nsecs: 382631617
  frame_id: "world_vive"
twist: 
  linear: 
    x: -0.00013621441030409187
    y: 0.00021470872161444277
    z: -0.00033943509333766997
  angular: 
    x: -0.0034115330781787634
    y: 0.0032206103205680847
    z: -0.004258657805621624
---
header: 
  seq: 11887
  stamp: 
    secs: 1682524376
    nsecs: 415965492
  frame_id: "world_vive"
twist: 
  linear: 
    x: -0.00022627024736721069
    y: -1.3590994967671577e-05
    z: -0.0001269281783606857
  angular: 
    x: -0.00043776206439360976
    y: 0.0022278744727373123
    z: 0.00020059049711562693
---
header: 
  seq: 11888
  stamp: 
    secs: 1682524376
    nsecs: 449239685
  frame_id: "world_vive"
twist: 
  linear: 
    x: -0.0009690971346572042
    y: 2.0772167772520334e-05
    z: -0.0001091411686502397
  angular: 
    x: 0.0006614744197577238
    y: 0.0005037274095229805
    z: 0.00040153093868866563
---
header: 
  seq: 11889
  stamp: 
    secs: 1682524376
    nsecs: 482634827
  frame_id: "world_vive"
twist: 
  linear: 
    x: -0.0013494405429810286
    y: -0.00015694423927925527
    z: 0.0002578368876129389
  angular: 
    x: -0.0005922851851209998
    y: -0.0015161670744419098
    z: 0.0009446153417229652
---
header: 
  seq: 11890
  stamp: 
    secs: 1682524376
    nsecs: 515929901
  frame_id: "world_vive"
twist: 
  linear: 
    x: -0.00040540428017266095
    y: -0.00020232181122992188
    z: 0.0006334293866530061
  angular: 
    x: 0.0003799850819632411
    y: 0.0031000145245343447
    z: -0.0001263338199350983
---
header: 
  seq: 11891
  stamp: 
    secs: 1682524376
    nsecs: 549400807
  frame_id: "world_vive"
twist: 
  linear: 
    x: 9.311029862146825e-05
    y: 3.838757402263582e-05
    z: -0.0004458090988919139
  angular: 
    x: 0.0011237073922529817
    y: 0.0008269162499345839
    z: 0.0005372762097977102
---
header: 
  seq: 11892
  stamp: 
    secs: 1682524376
    nsecs: 582653004
  frame_id: "world_vive"
twist: 
  linear: 
    x: -0.00024917861446738243
    y: 0.0003122370399069041
    z: -0.000264083209913224
  angular: 
    x: -0.00022374030959326774
    y: -0.0010779625736176968
    z: -0.00036379272933118045
---
header: 
  seq: 11893
  stamp: 
    secs: 1682524376
    nsecs: 615919514
  frame_id: "world_vive"
twist: 
  linear: 
    x: -0.00013456281158141792
    y: 0.0003487739304546267
    z: -0.0005462251720018685
  angular: 
    x: -0.002123089274391532
    y: 0.0018137445440515876
    z: 0.0013488784898072481
---
header: 
  seq: 11894
  stamp: 
    secs: 1682524376
    nsecs: 649240282
  frame_id: "world_vive"
twist: 
  linear: 
    x: -0.00023657632118556648
    y: 0.000528745586052537
    z: -0.00023999996483325958
  angular: 
    x: -0.001235101604834199
    y: 0.0015644157538190484
    z: 0.0005261519690975547
---
header: 
  seq: 11895
  stamp: 
    secs: 1682524376
    nsecs: 682692825
  frame_id: "world_vive"
twist: 
  linear: 
    x: -8.071201591519639e-05
    y: 0.00040344661101698875
    z: 8.840378541208338e-06
  angular: 
    x: 0.0002813110186252743
    y: 0.0017567327013239264
    z: 0.00017615570686757565
---
header: 
  seq: 11896
  stamp: 
    secs: 1682524376
    nsecs: 715952087
  frame_id: "world_vive"
twist: 
  linear: 
    x: -0.0006183187360875309
    y: 0.0002071709604933858
    z: 8.045482536545023e-05
  angular: 
    x: 0.0019395977724343538
    y: 0.0015675608301535249
    z: -0.0012301261303946376
---
header: 
  seq: 11897
  stamp: 
    secs: 1682524376
    nsecs: 749315521
  frame_id: "world_vive"
twist: 
  linear: 
    x: 0.00017667596694082022
    y: 0.00017702375771477818
    z: -0.0001165598223451525
  angular: 
    x: -0.0007803345797583461
    y: -0.0009650205029174685
    z: -0.0011700942413881421
---
header: 
  seq: 11898
  stamp: 
    secs: 1682524376
    nsecs: 782666231
  frame_id: "world_vive"
twist: 
  linear: 
    x: -0.0004575575003400445
    y: -5.586172119365074e-05
    z: -0.000421319215092808
  angular: 
    x: 0.0029542408883571625
    y: -0.003290823195129633
    z: -0.0025740177370607853
---
header: 
  seq: 11899
  stamp: 
    secs: 1682524376
    nsecs: 815922150
  frame_id: "world_vive"
twist: 
  linear: 
    x: -0.00012133806012570858
    y: -3.369690602994524e-05
    z: 0.00013212201884016395
  angular: 
    x: 0.0002296863094670698
    y: -0.0025798215065151453
    z: 0.002651593182235956
---
header: 
  seq: 11900
  stamp: 
    secs: 1682524376
    nsecs: 849292186
  frame_id: "world_vive"
twist: 
  linear: 
    x: -0.0004898772458545864
    y: -0.00029472625465132296
    z: -8.964384323917329e-05
  angular: 
    x: 0.000503145856782794
    y: -0.0010029611876234412
    z: 0.0018053329549729824
---
header: 
  seq: 11901
  stamp: 
    secs: 1682524376
    nsecs: 882650487
  frame_id: "world_vive"
twist: 
  linear: 
    x: -0.0006896354025229812
    y: 0.00032849182025529444
    z: -0.00024531723465770483
  angular: 
    x: -0.000714187219273299
    y: -0.00045655801659449935
    z: -0.0017247479408979416
---
header: 
  seq: 11902
  stamp: 
    secs: 1682524376
    nsecs: 915913571
  frame_id: "world_vive"
twist: 
  linear: 
    x: -0.0011065169237554073
    y: -0.001029911101795733
    z: -0.0005791963776573539
  angular: 
    x: 0.00198762072250247
    y: -0.00013527505507227033
    z: 0.0002998100535478443
---
header: 
  seq: 11903
  stamp: 
    secs: 1682524376
    nsecs: 949236460
  frame_id: "world_vive"
twist: 
  linear: 
    x: -0.0004927603877149522
    y: -0.0007127064745873213
    z: -0.0003606753598432988
  angular: 
    x: -0.0008121040882542729
    y: -0.0055475542321801186
    z: 0.0038756737485527992
---
header: 
  seq: 11904
  stamp: 
    secs: 1682524376
    nsecs: 982625677
  frame_id: "world_vive"
twist: 
  linear: 
    x: -0.0003311557520646602
    y: -0.0004295648541301489
    z: -0.0008075500372797251
  angular: 
    x: 0.001077235909178853
    y: 0.00019482617790345103
    z: -0.0005968136829324067
---
header: 
  seq: 11905
  stamp: 
    secs: 1682524377
    nsecs:  16049186
  frame_id: "world_vive"
twist: 
  linear: 
    x: 1.8978646039613523e-05
    y: -0.00015712545427959412
    z: -0.000327908230246976
  angular: 
    x: 0.002325334819033742
    y: -0.00376622355543077
    z: -0.0013593054609373212
---
header: 
  seq: 11906
  stamp: 
    secs: 1682524377
    nsecs:  49407317
  frame_id: "world_vive"
twist: 
  linear: 
    x: -8.698383317096159e-05
    y: -0.0007001875783316791
    z: 0.00028018635930493474
  angular: 
    x: 0.0032144375145435333
    y: 0.002645926084369421
    z: 0.0019434825517237186
---
header: 
  seq: 11907
  stamp: 
    secs: 1682524377
    nsecs:  82701708
  frame_id: "world_vive"
twist: 
  linear: 
    x: -0.00028269703034311533
    y: -0.0001038335103658028
    z: 0.0005493792123161256
  angular: 
    x: -0.0039653051644563675
    y: -0.000514122424647212
    z: -0.0031156984623521566
---
header: 
  seq: 11908
  stamp: 
    secs: 1682524377
    nsecs: 115946328
  frame_id: "world_vive"
twist: 
  linear: 
    x: 0.0009608517284505069
    y: -0.0007437706226482987
    z: 0.00020982485148124397
  angular: 
    x: 0.002186182187870145
    y: 0.0013765014009550214
    z: 0.0013813808327540755
---
header: 
  seq: 11909
  stamp: 
    secs: 1682524377
    nsecs: 149246139
  frame_id: "world_vive"
twist: 
  linear: 
    x: 3.084776835748926e-05
    y: -0.00030014474759809673
    z: 0.0002900289837270975
  angular: 
    x: 0.0004826560616493225
    y: 2.058904465229716e-05
    z: -0.0013664141297340393
---
header: 
  seq: 11910
  stamp: 
    secs: 1682524377
    nsecs: 182611656
  frame_id: "world_vive"
twist: 
  linear: 
    x: -0.00034532908466644585
    y: -0.00033682765206322074
    z: -0.000552673009224236
  angular: 
    x: 8.185041951946914e-05
    y: 0.0014378175837919116
    z: -0.00015911278023850173
---
header: 
  seq: 11911
  stamp: 
    secs: 1682524377
    nsecs: 215889086
  frame_id: "world_vive"
twist: 
  linear: 
    x: -0.000969494751188904
    y: -0.0008967212052084506
    z: -0.0007319474243558943
  angular: 
    x: -1.5634957890142687e-05
    y: -0.0002550955687183887
    z: -0.0006387066678144038
---
header: 
  seq: 11912
  stamp: 
    secs: 1682524377
    nsecs: 249394278
  frame_id: "world_vive"
twist: 
  linear: 
    x: -0.00024387071607634425
    y: -0.0013353644171729684
    z: -0.00019384518964216113
  angular: 
    x: -0.0009372102795168757
    y: -0.0009560062899254262
    z: 0.001610307372175157
---
header: 
  seq: 11913
  stamp: 
    secs: 1682524377
    nsecs: 282626950
  frame_id: "world_vive"
twist: 
  linear: 
    x: -0.00022558041382580996
    y: -0.0011326222447678447
    z: -0.0002286429808009416
  angular: 
    x: 0.0019868018571287394
    y: 0.0012996431905776262
    z: -0.001477280748076737
---
header: 
  seq: 11914
  stamp: 
    secs: 1682524377
    nsecs: 315884680
  frame_id: "world_vive"
twist: 
  linear: 
    x: 3.2875355827854946e-05
    y: -0.0007818505400791764
    z: -0.00017261233006138355
  angular: 
    x: 0.0013153654290363193
    y: 0.0011617153650149703
    z: -0.0019918226171284914
---
header: 
  seq: 11915
  stamp: 
    secs: 1682524377
    nsecs: 349261767
  frame_id: "world_vive"
twist: 
  linear: 
    x: 0.00046313440543599427
    y: -0.0007121560047380626
    z: 0.0006178198382258415
  angular: 
    x: -0.00020543202117551118
    y: 0.0034515471197664738
    z: -0.001236572745256126
---
header: 
  seq: 11916
  stamp: 
    secs: 1682524377
    nsecs: 382608997
  frame_id: "world_vive"
twist: 
  linear: 
    x: 0.0004896943573839962
    y: -0.0003921187308151275
    z: 0.0004387074150145054
  angular: 
    x: 0.0002321104984730482
    y: -0.000705718295648694
    z: -0.0002775980974547565
---
header: 
  seq: 11917
  stamp: 
    secs: 1682524377
    nsecs: 415885791
  frame_id: "world_vive"
twist: 
  linear: 
    x: 0.0011420735390856862
    y: 0.0005228453665040433
    z: 0.00039136773557402194
  angular: 
    x: -7.209944305941463e-05
    y: 0.00019898680329788476
    z: -0.0015638968907296658
---
header: 
  seq: 11918
  stamp: 
    secs: 1682524377
    nsecs: 449324726
  frame_id: "world_vive"
twist: 
  linear: 
    x: 0.0008703263010829687
    y: 0.0005844051484018564
    z: -0.0003221920633222908
  angular: 
    x: 0.0013981162337586284
    y: 0.00010063415538752452
    z: -0.001611463725566864
---
header: 
  seq: 11919
  stamp: 
    secs: 1682524377
    nsecs: 482608194
  frame_id: "world_vive"
twist: 
  linear: 
    x: 0.00015068749780766666
    y: 0.00020021942327730358
    z: -0.000343389343470335
  angular: 
    x: -0.0013331621885299683
    y: -0.0015768023440614343
    z: -0.0010319423163309693
---
header: 
  seq: 11920
  stamp: 
    secs: 1682524377
    nsecs: 515993254
  frame_id: "world_vive"
twist: 
  linear: 
    x: 0.00033151093521155417
    y: 0.00023253640392795205
    z: -0.0005627269274555147
  angular: 
    x: -0.0009776477236300707
    y: -0.0010315666440874338
    z: 0.0010231547057628632
---
header: 
  seq: 11921
  stamp: 
    secs: 1682524377
    nsecs: 549290652
  frame_id: "world_vive"
twist: 
  linear: 
    x: 0.0009120663744397461
    y: 0.000281478714896366
    z: 0.0010874578729271889
  angular: 
    x: 0.0010737157426774502
    y: 0.002739295596256852
    z: 0.0006495197303593159
---
header: 
  seq: 11922
  stamp: 
    secs: 1682524377
    nsecs: 582622965
  frame_id: "world_vive"
twist: 
  linear: 
    x: 0.0011568934423848987
    y: 0.0008848897414281964
    z: -2.3265936761163175e-05
  angular: 
    x: -0.0007914784946478903
    y: -0.00043889161315746605
    z: 0.0010525408433750272
---
header: 
  seq: 11923
  stamp: 
    secs: 1682524377
    nsecs: 616037812
  frame_id: "world_vive"
twist: 
  linear: 
    x: 0.0007034661830402911
    y: 0.0007156457868404686
    z: 0.00023949885508045554
  angular: 
    x: -0.0031455205753445625
    y: 0.002430368447676301
    z: 0.0006470346706919372
---
header: 
  seq: 11924
  stamp: 
    secs: 1682524377
    nsecs: 649378249
  frame_id: "world_vive"
twist: 
  linear: 
    x: 0.0005695219151675701
    y: 0.0005635760608129203
    z: 0.00014338042819872499
  angular: 
    x: 0.0018878658302128315
    y: 0.00117151637095958
    z: -0.00010192731133429334
---
header: 
  seq: 11925
  stamp: 
    secs: 1682524377
    nsecs: 682639531
  frame_id: "world_vive"
twist: 
  linear: 
    x: 0.0001415311126038432
    y: 0.0004654690274037421
    z: 0.0001324090699199587
  angular: 
    x: 0.0002479738905094564
    y: -0.0003423917805776
    z: 0.00309144239872694
---
header: 
  seq: 11926
  stamp: 
    secs: 1682524377
    nsecs: 716005526
  frame_id: "world_vive"
twist: 
  linear: 
    x: -0.00012307174620218575
    y: 0.0006060046143829823
    z: 0.00047409842954948545
  angular: 
    x: 0.00025779008865356445
    y: 0.001782502862624824
    z: -0.0023817436303943396
---
header: 
  seq: 11927
  stamp: 
    secs: 1682524377
    nsecs: 749346340
  frame_id: "world_vive"
twist: 
  linear: 
    x: -0.0004041959182359278
    y: -0.00020503890118561685
    z: 0.00034132710425183177
  angular: 
    x: -0.00039589626248925924
    y: -0.0007535926997661591
    z: -0.0024567183572798967
---
header: 
  seq: 11928
  stamp: 
    secs: 1682524377
    nsecs: 782665378
  frame_id: "world_vive"
twist: 
  linear: 
    x: -0.0008527624886482954
    y: -8.471569890389219e-05
    z: 0.00016164938278961927
  angular: 
    x: 0.0005840001394972205
    y: -0.001697986270301044
    z: -0.002357796300202608
---
header: 
  seq: 11929
  stamp: 
    secs: 1682524377
    nsecs: 815942642
  frame_id: "world_vive"
twist: 
  linear: 
    x: -0.0004792753607034683
    y: 0.00028543081134557724
    z: -0.00022289982007350773
  angular: 
    x: 0.005195534788072109
    y: -0.0035247833002358675
    z: 0.0026798576582223177
---
header: 
  seq: 11930
  stamp: 
    secs: 1682524377
    nsecs: 849286653
  frame_id: "world_vive"
twist: 
  linear: 
    x: 0.0001605592406122014
    y: 0.00042728541302494705
    z: -0.0008134287782013416
  angular: 
    x: 0.0013947641709819436
    y: 0.001364060677587986
    z: 0.00027714084717445076
---
header: 
  seq: 11931
  stamp: 
    secs: 1682524377
    nsecs: 882639752
  frame_id: "world_vive"
twist: 
  linear: 
    x: 0.000840703840367496
    y: 0.0006033864920027554
    z: -0.0003240662335883826
  angular: 
    x: 0.0007842110935598612
    y: -0.002632149728015065
    z: 0.001714120153337717
---
header: 
  seq: 11932
  stamp: 
    secs: 1682524377
    nsecs: 915945565
  frame_id: "world_vive"
twist: 
  linear: 
    x: 0.0008052828488871455
    y: 0.0007107086130417883
    z: -2.9675555197172798e-05
  angular: 
    x: 0.0005147008923813701
    y: -0.0010396908037364483
    z: 0.0017944874707609415
---
header: 
  seq: 11933
  stamp: 
    secs: 1682524377
    nsecs: 949269067
  frame_id: "world_vive"
twist: 
  linear: 
    x: 0.0005224398337304592
    y: 0.0003103333874605596
    z: -3.064244447159581e-05
  angular: 
    x: -0.0008045191061682999
    y: -0.002017844468355179
    z: 0.0019758029375225306
---
header: 
  seq: 11934
  stamp: 
    secs: 1682524377
    nsecs: 982645036
  frame_id: "world_vive"
twist: 
  linear: 
    x: 0.0005193353281356394
    y: 0.0004311364609748125
    z: 0.0009588217944838107
  angular: 
    x: 0.00047123164404183626
    y: 0.0003354147484060377
    z: 0.001984645379707217
---
header: 
  seq: 11935
  stamp: 
    secs: 1682524378
    nsecs:  15979878
  frame_id: "world_vive"
twist: 
  linear: 
    x: 0.0001333761465502903
    y: 0.000588012975640595
    z: 0.0005297859315760434
  angular: 
    x: 0.0006730862078256905
    y: 0.00013770964869763702
    z: -0.00019391271052882075
---
header: 
  seq: 11936
  stamp: 
    secs: 1682524378
    nsecs:  49262495
  frame_id: "world_vive"
twist: 
  linear: 
    x: 0.0011449155863374472
    y: -0.00010455326992087066
    z: 0.0001952856546267867
  angular: 
    x: -0.001296520815230906
    y: -0.0009103756165131927
    z: 0.0028476030565798283
---
header: 
  seq: 11937
  stamp: 
    secs: 1682524378
    nsecs:  82645083
  frame_id: "world_vive"
twist: 
  linear: 
    x: 0.0005074352957308292
    y: 0.0008336075698025525
    z: -0.0002809878787957132
  angular: 
    x: -0.001881314325146377
    y: -0.0010662868153303862
    z: -0.00044329738011583686
---
header: 
  seq: 11938
  stamp: 
    secs: 1682524378
    nsecs: 115928435
  frame_id: "world_vive"
twist: 
  linear: 
    x: 9.046146442415193e-05
    y: 0.0007766932831145823
    z: 5.658822919940576e-05
  angular: 
    x: -0.0008629144285805523
    y: -0.0009804676519706845
    z: -0.0009526654612272978
---
header: 
  seq: 11939
  stamp: 
    secs: 1682524378
    nsecs: 149358221
  frame_id: "world_vive"
twist: 
  linear: 
    x: 0.0005264978390187025
    y: 0.000723790901247412
    z: 0.00042599340667948127
  angular: 
    x: 0.00012497733405325562
    y: 0.0021550043020397425
    z: -0.0005124064045958221
---
header: 
  seq: 11940
  stamp: 
    secs: 1682524378
    nsecs: 182693268
  frame_id: "world_vive"
twist: 
  linear: 
    x: 0.0004391652182675898
    y: 0.00032360717887058854
    z: -0.00016102727386169136
  angular: 
    x: -0.002678873250260949
    y: -0.001638262183405459
    z: 0.002998459618538618
---
header: 
  seq: 11941
  stamp: 
    secs: 1682524378
    nsecs: 215993743
  frame_id: "world_vive"
twist: 
  linear: 
    x: -0.0002678095770534128
    y: 0.00033634842839092016
    z: 8.4964503912488e-06
  angular: 
    x: 0.00162844720762223
    y: 0.0003660612856037915
    z: -0.001588990562595427
---
header: 
  seq: 11942
  stamp: 
    secs: 1682524378
    nsecs: 249292655
  frame_id: "world_vive"
twist: 
  linear: 
    x: 0.0006023389869369566
    y: 0.0005247045191936195
    z: 0.0008010828751139343
  angular: 
    x: -0.000779513327870518
    y: 0.003501247614622116
    z: 0.0005140841822139919
---
header: 
  seq: 11943
  stamp: 
    secs: 1682524378
    nsecs: 282659190
  frame_id: "world_vive"
twist: 
  linear: 
    x: -0.00026303689810447395
    y: 0.0006527498480863869
    z: -0.00010571248276391998
  angular: 
    x: -0.00219291215762496
    y: 0.0010674095246940851
    z: -0.0026187808252871037
---
header: 
  seq: 11944
  stamp: 
    secs: 1682524378
    nsecs: 315952294
  frame_id: "world_vive"
twist: 
  linear: 
    x: -0.00017984061560127884
    y: 0.0005413376493379474
    z: -5.5686559790046886e-05
  angular: 
    x: -0.0015396920498460531
    y: -0.003986066207289696
    z: -0.00012505060294643044
---
header: 
  seq: 11945
  stamp: 
    secs: 1682524378
    nsecs: 349273239
  frame_id: "world_vive"
twist: 
  linear: 
    x: 0.0008244689088314772
    y: 0.0006326579605229199
    z: 7.774429104756564e-05
  angular: 
    x: -0.0007472920697182417
    y: -0.0010417215526103973
    z: 0.003633290296420455
---
header: 
  seq: 11946
  stamp: 
    secs: 1682524378
    nsecs: 382697516
  frame_id: "world_vive"
twist: 
  linear: 
    x: 0.0004931360017508268
    y: 9.303925617132336e-05
    z: -0.0004317407729104161
  angular: 
    x: -0.001349258003756404
    y: 0.0001885590609163046
    z: 0.0005437249783426523
---
header: 
  seq: 11947
  stamp: 
    secs: 1682524378
    nsecs: 415959400
  frame_id: "world_vive"
twist: 
  linear: 
    x: 0.0003329898463562131
    y: -0.0004387101507745683
    z: -0.00010538790957070887
  angular: 
    x: -0.0014353417791426182
    y: -0.0029605149757117033
    z: 0.0015494150575250387
---
header: 
  seq: 11948
  stamp: 
    secs: 1682524378
    nsecs: 449266376
  frame_id: "world_vive"
twist: 
  linear: 
    x: 0.0009865680476650596
    y: -0.0017640923615545034
    z: -0.00023279679589904845
  angular: 
    x: 0.0020195746328681707
    y: 0.0014060187386348844
    z: -7.996773638296872e-05
---
header: 
  seq: 11949
  stamp: 
    secs: 1682524378
    nsecs: 482639300
  frame_id: "world_vive"
twist: 
  linear: 
    x: -8.96059864317067e-05
    y: -0.0038735861890017986
    z: -0.0002811096783261746
  angular: 
    x: -0.0009350311593152583
    y: 0.0020763978827744722
    z: 0.002556746592745185
---
header: 
  seq: 11950
  stamp: 
    secs: 1682524378
    nsecs: 515964765
  frame_id: "world_vive"
twist: 
  linear: 
    x: -0.00019329888164065778
    y: -0.004093117080628872
    z: -0.00024301483063027263
  angular: 
    x: -0.00028779503190889955
    y: 0.0012171360431239009
    z: -0.001420834450982511
---
header: 
  seq: 11951
  stamp: 
    secs: 1682524378
    nsecs: 549365673
  frame_id: "world_vive"
twist: 
  linear: 
    x: 0.00039816336357034743
    y: -0.004738714080303907
    z: -0.00014029681915417314
  angular: 
    x: -0.0005033412016928196
    y: -0.00028344549355097115
    z: -1.5065390471136197e-05
---
header: 
  seq: 11952
  stamp: 
    secs: 1682524378
    nsecs: 582664531
  frame_id: "world_vive"
twist: 
  linear: 
    x: -0.0007486623944714665
    y: -0.004246051423251629
    z: -0.0009032420348376036
  angular: 
    x: 0.00305010168813169
    y: -0.0007313228561542928
    z: -0.001037799520418048
---
header: 
  seq: 11953
  stamp: 
    secs: 1682524378
    nsecs: 615951995
  frame_id: "world_vive"
twist: 
  linear: 
    x: -0.0014036131324246526
    y: -0.003531563561409712
    z: -0.0013282850850373507
  angular: 
    x: 0.0012167764361947775
    y: -0.003913113847374916
    z: -0.0006286564166657627
---
header: 
  seq: 11954
  stamp: 
    secs: 1682524378
    nsecs: 649305435
  frame_id: "world_vive"
twist: 
  linear: 
    x: -0.001736586564220488
    y: -0.0025415499694645405
    z: -0.00037530704867094755
  angular: 
    x: -0.0013875585282221437
    y: 0.0018771212780848145
    z: -0.003553657094016671
---
header: 
  seq: 11955
  stamp: 
    secs: 1682524378
    nsecs: 682577110
  frame_id: "world_vive"
twist: 
  linear: 
    x: -0.0011615981347858906
    y: -0.0017861478263512254
    z: -0.0005902181728743017
  angular: 
    x: 0.000963584054261446
    y: -7.592010661028326e-05
    z: -0.0018239973578602076
---
header: 
  seq: 11956
  stamp: 
    secs: 1682524378
    nsecs: 715956794
  frame_id: "world_vive"
twist: 
  linear: 
    x: -0.0013645627768710256
    y: -0.0015048228669911623
    z: -3.79950251954142e-05
  angular: 
    x: 0.001021312433294952
    y: 0.002742221811786294
    z: -0.0008559040725231171
---
header: 
  seq: 11957
  stamp: 
    secs: 1682524378
    nsecs: 749275023
  frame_id: "world_vive"
twist: 
  linear: 
    x: 0.0008913256460800767
    y: -0.0014831075677648187
    z: 0.0007923692464828491
  angular: 
    x: -0.0026271685492247343
    y: -0.0014293590793386102
    z: 0.00034639606019482017
---
header: 
  seq: 11958
  stamp: 
    secs: 1682524378
    nsecs: 782683458
  frame_id: "world_vive"
twist: 
  linear: 
    x: 0.00011114588414784521
    y: -0.0005740271881222725
    z: 0.0004230245540384203
  angular: 
    x: -8.049965981626883e-05
    y: 3.8254231185419485e-05
    z: 0.00310633541084826
---
header: 
  seq: 11959
  stamp: 
    secs: 1682524378
    nsecs: 816005049
  frame_id: "world_vive"
twist: 
  linear: 
    x: -1.808409797376953e-05
    y: -0.00022331612126436085
    z: 0.00032900061341933906
  angular: 
    x: -0.0004130035813432187
    y: -0.0013590840389952064
    z: -0.0019992145244032145
---
header: 
  seq: 11960
  stamp: 
    secs: 1682524378
    nsecs: 849315712
  frame_id: "world_vive"
twist: 
  linear: 
    x: 0.0002618158468976617
    y: -0.00028719089459627867
    z: 0.0005413682083599269
  angular: 
    x: -0.0009307424770668149
    y: 0.0010261840652674437
    z: -0.0017564685549587011
---
header: 
  seq: 11961
  stamp: 
    secs: 1682524378
    nsecs: 882633968
  frame_id: "world_vive"
twist: 
  linear: 
    x: 0.0011209369404241443
    y: -6.51160953566432e-05
    z: 0.0006502629839815199
  angular: 
    x: -0.0015604713698849082
    y: 0.0009654458845034242
    z: 0.0011228432413190603
---
header: 
  seq: 11962
  stamp: 
    secs: 1682524378
    nsecs: 915949838
  frame_id: "world_vive"
twist: 
  linear: 
    x: 0.0006232953746803105
    y: -0.0008085741428658366
    z: 0.0008822602103464305
